loggingTime,loggingSample,identifierForVendor,deviceID,locationTimestamp_since1970,locationLatitude,locationLongitude,locationAltitude,locationSpeed,locationCourse,locationVerticalAccuracy,locationHorizontalAccuracy,locationFloor,locationHeadingTimestamp_since1970,locationHeadingX,locationHeadingY,locationHeadingZ,locationTrueHeading,locationMagneticHeading,locationHeadingAccuracy,accelerometerTimestamp_sinceReboot,accelerometerAccelerationX,accelerometerAccelerationY,accelerometerAccelerationZ,gyroTimestamp_sinceReboot,gyroRotationX,gyroRotationY,gyroRotationZ,motionTimestamp_sinceReboot,motionYaw,motionRoll,motionPitch,motionRotationRateX,motionRotationRateY,motionRotationRateZ,motionUserAccelerationX,motionUserAccelerationY,motionUserAccelerationZ,motionAttitudeReferenceFrame,motionQuaternionX,motionQuaternionY,motionQuaternionZ,motionQuaternionW,motionGravityX,motionGravityY,motionGravityZ,motionMagneticFieldX,motionMagneticFieldY,motionMagneticFieldZ,motionMagneticFieldCalibrationAccuracy,activityTimestamp_sinceReboot,activity,activityActivityConfidence,activityActivityStartDate,pedometerStartDate,pedometerNumberofSteps,pedometerDistance,pedometerFloorAscended,pedometerFloorDescended,pedometerEndDate,altimeterTimestamp_sinceReboot,altimeterReset,altimeterRelativeAltitude,altimeterPressure,IP_en0,IP_pdp_ip0,deviceOrientation,batteryState,batteryLevel,state
2016-07-07 14:24:47.033,1,359D9C92-F92A-4B76-879A-D4D13BE6E09A,my_iOS_device_1,1467923085.999984,31.74870938996947,-106.4868711960562,1136.097,0.45,10.546875,3,5,-9999,1467923086.975104,-9.702582359313965,-42.1424560546875,-106.0567626953125,33.55604553222656,25.2668399810791,25,400664.206125375,0.1041259765625,-0.751312255859375,-0.691741943359375,400664.196740375,-0.0868603305334794,-0.5409370195591507,-0.0307965285295673,400664.161781375,-0.1086586475822899,0.2035053197577224,0.8604665826753293,-0.3392003178596497,0.006548072677105665,-0.009764544665813446,-0.01887341216206551,0.01609672605991364,-0.04205181822180748,XArbitraryCorrectedZVertical,0.4193265712789899,0.06965253119329951,-0.006795063199670268,0.9051340114225506,0.1317884474992752,-0.7581468820571899,-0.6386275291442871,-19.97911262512207,-40.28173065185547,-111.5645141601562,1,400654.6741097917,walking,0,2016-07-07 14:24:37.416,2016-07-07 14:24:33.769,8,6.592648,0,0,2016-07-07 14:24:44.988,400664.200939375,0,-0.08630371,88.55523,0.0.0.0,22.65.149.222,1,1,0.67,0
2016-07-07 14:24:47.084,2,359D9C92-F92A-4B76-879A-D4D13BE6E09A,my_iOS_device_1,1467923085.999984,31.74870938996947,-106.4868711960562,1136.097,0.45,10.546875,3,5,-9999,1467923087.055685,-14.44101142883301,-41.48776245117188,-106.1554565429688,36.55066680908203,28.2614574432373,25,400664.264963375,0.1018524169921875,-0.72564697265625,-0.6790008544921875,400664.231703375,-0.06437286460495932,-0.6960112919378107,0.1365376059272725,400664.231703375,-0.1013396198923596,0.1619078124294167,0.8481912966555936,-0.0540989488363266,-0.7382968068122864,0.1474221646785736,-0.05907792598009109,0.01441346574574709,-0.05240179598331451,XArbitraryCorrectedZVertical,0.4133555244761621,0.05283386197613398,-0.01277691358278839,0.9089458421121769,0.1066090539097786,-0.7500854730606079,-0.6526916027069092,-22.00015258789062,-38.12683868408203,-111.9408798217773,1,400654.6741097917,walking,0,2016-07-07 14:24:37.416,2016-07-07 14:24:33.769,8,6.592648,0,0,2016-07-07 14:24:44.988,400664.200939375,0,-0.08630371,88.55523,0.0.0.0,22.65.149.222,1,1,0.67,0
2016-07-07 14:24:47.116,3,359D9C92-F92A-4B76-879A-D4D13BE6E09A,my_iOS_device_1,1467923086.999999,31.74870938996947,-106.4868711960562,1136.261,0,10.546875,3,5,-9999,1467923087.097239,-17.79595947265625,-40.97090148925781,-105.46484375,36.5626220703125,28.27341461181641,25,400664.3238393751,0.0046234130859375,-0.724853515625,-0.640869140625,400664.301593375,0.1057227015861836,-0.6940333621962089,0.2466710349108453,400664.301593375,-0.08051164205438527,0.1090549218290548,0.8436657470195656,0.1159801706671715,-0.7363118529319763,0.2575547993183136,0.012124327942729,-0.02647470869123936,0.01086218655109406,XArbitraryCorrectedZVertical,0.4104947070583161,0.03322951967694646,-0.01436628638014533,0.9111440634250892,0.07234832644462585,-0.7470848560333252,-0.6607797741889954,-27.77940559387207,-36.82793426513672,-111.0874938964844,1,400654.6741097917,walking,0,2016-07-07 14:24:37.416,2016-07-07 14:24:33.769,8,6.592648,0,0,2016-07-07 14:24:44.988,400664.200939375,0,-0.08630371,88.55523,0.0.0.0,22.65.149.222,1,1,0.67,0
2016-07-07 14:24:47.177,4,359D9C92-F92A-4B76-879A-D4D13BE6E09A,my_iOS_device_1,1467923086.999999,31.74870938996947,-106.4868711960562,1136.261,0,10.546875,3,5,-9999,1467923087.136309,-20.32081604003906,-41.2810173034668,-104.7085571289062,37.23640823364258,28.94720077514648,25,400664.382692375,0.012420654296875,-0.7545013427734375,-0.6143341064453125,400664.371511375,0.0734603691926367,-0.205993113472648,-0.03944114942796451,400664.336583375,-0.071978127891255,0.07263573258098895,0.8529859836751196,0.2907173037528992,-0.7573254108428955,0.08806949108839035,-0.04198063910007477,0.009870066307485104,0.02119116485118866,XArbitraryCorrectedZVertical,0.4143294540649508,0.01816097025491448,-0.01772560221601443,0.9097730957110747,0.04773320257663727,-0.7532477378845215,-0.6560025811195374,-31.67111015319824,-37.2913703918457,-109.8850250244141,1,400654.6741097917,walking,0,2016-07-07 14:24:37.416,2016-07-07 14:24:33.769,8,6.592648,0,0,2016-07-07 14:24:44.988,400664.200939375,0,-0.08630371,88.55523,0.0.0.0,22.65.149.222,1,1,0.67,0
2016-07-07 14:24:47.241,5,359D9C92-F92A-4B76-879A-D4D13BE6E09A,my_iOS_device_1,1467923086.999999,31.74870938996947,-106.4868711960562,1136.261,0,10.546875,3,5,-9999,1467923087.184208,-22.91484260559082,-41.79787826538086,-104.2152709960938,38.05803680419922,29.76883125305176,25,400664.441551375,0.0058441162109375,-0.7316436767578125,-0.628265380859375,400664.406491375,-0.1817644728234341,-0.1058177764370994,-0.06352065305613395,400664.406491375,-0.07036200734868342,0.04765511808739747,0.8592968585572556,-0.1714953631162643,-0.148117333650589,-0.05262833461165428,-0.03542383015155792,0.006681715603917837,0.01685288920998573,XArbitraryCorrectedZVertical,0.4169371429231807,0.006998965532133896,-0.02204948892741517,0.9086408825111095,0.03110559470951557,-0.7573836445808411,-0.6522288918495178,-34.91915512084961,-38.47000503540039,-108.4856414794922,1,400654.6741097917,walking,0,2016-07-07 14:24:37.416,2016-07-07 14:24:33.769,8,6.592648,0,0,2016-07-07 14:24:44.988,400664.200939375,0,-0.08630371,88.55523,0.0.0.0,22.65.149.222,1,1,0.67,0
2016-07-07 14:24:47.334,6,359D9C92-F92A-4B76-879A-D4D13BE6E09A,my_iOS_device_1,1467923086.999999,31.74870938996947,-106.4868711960562,1136.261,0,10.546875,3,5,-9999,1467923087.276946,-25.57804679870605,-41.83233642578125,-102.866943359375,37.12142181396484,28.83221626281738,25,400664.500405375,0.05108642578125,-0.7363128662109375,-0.6348724365234375,400664.476422375,-0.06811513856873866,-0.1330912091606009,-0.007241667636143465,400664.476422375,-0.07647448218970447,0.04777495453055542,0.8552910498828623,-0.05783770978450775,-0.1753981560468674,0.003653163090348244,0.01321201026439667,0.02301138825714588,0.01854687370359898,XArbitraryCorrectedZVertical,0.4151389848429087,0.005868605300575425,-0.02487671562140634,0.9093988848438893,0.03132839500904083,-0.7547618746757507,-0.6552503705024719,-35.36604690551758,-37.99959945678711,-108.5066604614258,1,400654.6741097917,walking,0,2016-07-07 14:24:37.416,2016-07-07 14:24:33.769,8,6.592648,0,0,2016-07-07 14:24:44.988,400664.200939375,0,-0.08630371,88.55523,0.0.0.0,22.65.149.222,1,1,0.67,0
2016-07-07 14:24:47.351,7,359D9C92-F92A-4B76-879A-D4D13BE6E09A,my_iOS_device_1,1467923086.999999,31.74870938996947,-106.4868711960562,1136.261,0,10.546875,3,5,-9999,1467923087.317016,-25.92391777038574,-42.03907775878906,-103.327392578125,37.46411895751953,29.17491149902344,25,400664.559265375,0.0174102783203125,-0.743072509765625,-0.631622314453125,400664.546320375,0.09978012392978081,-0.3651822360515894,0.01265640676449257,400664.511380375,-0.07553435993190717,0.03965945478305488,0.8548911360050181,0.04173934832215309,-0.2544664740562439,0.03194782137870789,0.01584841310977936,0.01942256838083267,0.02117154374718666,XArbitraryCorrectedZVertical,0.4148518235948529,0.00238205715671126,-0.0261402879818718,0.9095102943936064,0.02602170407772064,-0.7544994950294495,-0.6557846069335938,-35.36604690551758,-37.99959945678711,-108.5066604614258,1,400654.6741097917,walking,0,2016-07-07 14:24:37.416,2016-07-07 14:24:33.769,8,6.592648,0,0,2016-07-07 14:24:44.988,400664.200939375,0,-0.08630371,88.55523,0.0.0.0,22.65.149.222,1,1,0.67,0
2016-07-07 14:24:47.416,8,359D9C92-F92A-4B76-879A-D4D13BE6E09A,my_iOS_device_1,1467923086.999999,31.74870938996947,-106.4868711960562,1136.261,0,10.546875,3,5,-9999,1467923087.39777,-29.00217056274414,-43.31401062011719,-101.84765625,39.27872467041016,30.98951721191406,25,400664.618130375,-0.0018463134765625,-0.7262115478515625,-0.604217529296875,400664.581276375,0.3174804935544172,-0.2541353428141194,-0.04413150873981207,400664.581276375,-0.07435244498507446,0.01321480402328345,0.8661456208000523,0.3277565538883209,-0.2964338064193726,-0.03324079513549805,-0.02416961640119553,0.03997506573796272,0.03127138316631317,XArbitraryCorrectedZVertical,0.4195856950582547,-0.009604288185868991,-0.03096468451655497,0.9071365886478766,0.008559875190258026,-0.7618378400802612,-0.6477112174034119,-37.63314056396484,-38.10014343261719,-107.7058410644531,1,400654.6741097917,walking,0,2016-07-07 14:24:37.416,2016-07-07 14:24:33.769,8,6.592648,0,0,2016-07-07 14:24:44.988,400664.200939375,0,-0.08630371,88.55523,0.0.0.0,22.65.149.222,1,1,0.67,0
2016-07-07 14:24:47.493,9,359D9C92-F92A-4B76-879A-D4D13BE6E09A,my_iOS_device_1,1467923086.999999,31.74870938996947,-106.4868711960562,1136.261,0,10.546875,3,5,-9999,1467923087.440582,-30.1435432434082,-43.21063613891602,-101.5516967773438,39.52433013916016,31.2351245880127,25,400664.676991375,0.01055908203125,-0.74652099609375,-0.6518096923828125,400664.651224375,-0.20336989979892,-0.1046848677093797,-0.01565699036468485,400664.651224375,-0.07563835773792262,-0.002034003843578724,0.8726839794288668,-0.193093404173851,-0.1469844728708267,-0.004765527322888374,-0.0167895220220089,0.02788244374096394,0.01093551702797413,XArbitraryCorrectedZVertical,0.4222897596538148,-0.01690064253079606,-0.03469697890278679,0.9056389163615828,-0.001307401456870139,-0.7660568952560425,-0.6427714824676514,-40.76718521118164,-39.87300872802734,-105.9084625244141,1,400654.6741097917,walking,0,2016-07-07 14:24:37.416,2016-07-07 14:24:33.769,8,6.592648,0,0,2016-07-07 14:24:44.988,400664.200939375,0,-0.08630371,88.55523,0.0.0.0,22.65.149.222,1,1,0.67,0
2016-07-07 14:24:47.528,10,359D9C92-F92A-4B76-879A-D4D13BE6E09A,my_iOS_device_1,1467923086.999999,31.74870938996947,-106.4868711960562,1136.261,0,10.546875,3,5,-9999,1467923087.521347,-31.04280853271484,-42.03908157348633,-101.4201049804688,38.60662078857422,30.31741333007812,25,400664.735850375,-0.0456390380859375,-0.7458953857421875,-0.6789398193359375,400664.721141375,-0.1789463157579123,-0.01069632020219425,0.120289127484481,400664.721141375,-0.06388965008327303,-0.01447737725552361,0.85644175146115,-0.1686813235282898,-0.05300076678395271,0.1311853229999542,-0.02634340524673462,-0.002021606313064694,-0.01162574160844088,XArbitraryCorrectedZVertical,0.4148199262256727,-0.01984424148706907,-0.03205902191126869,0.9091220237129976,-0.009484231472015381,-0.7555162310600281,-0.6550612449645996,-41.35234832763672,-38.08528900146484,-106.3386917114258,1,400654.6741097917,walking,0,2016-07-07 14:24:37.416,2016-07-07 14:24:33.769,10,7.692947,0,0,2016-07-07 14:24:47.492,400664.200939375,0,-0.08630371,88.55523,0.0.0.0,22.65.149.222,1,1,0.67,0
2016-07-07 14:24:47.587,11,359D9C92-F92A-4B76-879A-D4D13BE6E09A,my_iOS_device_1,1467923086.999999,31.74870938996947,-106.4868711960562,1136.261,0,10.546875,3,5,-9999,1467923087.559236,-31.00822067260742,-41.3843879699707,-101.8475952148438,38.42035675048828,30.13114738464355,25,400664.794710375,-0.0499114990234375,-0.7494964599609375,-0.6526336669921875,400664.756103375,-0.1065837015666062,0.08215798699672648,0.08157502103410813,400664.756103375,-0.05606218108630319,-0.02187956122001342,0.8498725855033629,-0.09632769972085953,0.03984645381569862,0.09247686713933945,-0.03165571764111519,-0.009713726118206978,-0.01045876275748014,XArbitraryCorrectedZVertical,0.4117967864889702,-0.0215167065596935,-0.03004147549635869,0.9105261927732645,-0.01444108411669731,-0.7511963248252869,-0.659920871257782,-41.56899642944336,-37.61696624755859,-106.4208908081055,1,400654.6741097917,walking,0,2016-07-07 14:24:37.416,2016-07-07 14:24:33.769,10,7.692947,0,0,2016-07-07 14:24:47.492,400664.200939375,0,-0.08630371,88.55523,0.0.0.0,22.65.149.222,1,1,0.67,0
2016-07-07 14:24:47.653,12,359D9C92-F92A-4B76-879A-D4D13BE6E09A,my_iOS_device_1,1467923086.999999,31.74870938996947,-106.4868711960562,1136.261,0,10.546875,3,5,-9999,1467923087.599417,-31.76913452148438,-40.97089385986328,-101.255615234375,38.57257843017578,30.28336906433105,25,400664.853547375,-0.034576416015625,-0.7458953857421875,-0.65142822265625,400664.826022375,-0.01341540767516515,0.02981062629401997,-0.0427144407237809,400664.826022375,-0.05218884652694092,-0.02592572526539084,0.8446705382736766,-0.003167141228914261,-0.01251939777284861,-0.03180019557476044,-0.02748081833124161,0.01995393633842468,0.003842433448880911,XArbitraryCorrectedZVertical,0.4094091846529591,-0.02251328808432085,-0.02910832734450036,0.9116084557860519,-0.01721217483282089,-0.7477523684501648,-0.6637545228004456,-42.09636306762695,-36.3892707824707,-106.6402359008789,1,400654.6741097917,walking,0,2016-07-07 14:24:37.416,2016-07-07 14:24:33.769,10,7.692947,0,0,2016-07-07 14:24:47.492,400664.200939375,0,-0.08630371,88.55523,0.0.0.0,22.65.149.222,1,1,0.67,0
2016-07-07 14:24:47.735,13,359D9C92-F92A-4B76-879A-D4D13BE6E09A,my_iOS_device_1,1467923086.999999,31.74870938996947,-106.4868711960562,1136.261,0,10.546875,3,5,-9999,1467923087.680135,-31.66537475585938,-40.66078186035156,-101.5516357421875,38.43094635009766,30.1417407989502,25,400664.912423375,-0.04132080078125,-0.72723388671875,-0.6389007568359375,400664.895944375,-0.02246855748478052,0.1008792105116565,-0.05114494347053574,400664.895944375,-0.05271039652317114,-0.02571509323733431,0.8471286514714793,-0.01221020147204399,0.05853015556931496,-0.04022104293107986,-0.01036447286605835,-2.263813439640217e-05,0.02101903967559338,XArbitraryCorrectedZVertical,0.4105268319841671,-0.02254709275723967,-0.02930404617563972,0.9110985795768581,-0.01702505350112915,-0.7493822574615479,-0.6619186997413635,-42.13310241699219,-36.38130569458008,-106.6284408569336,1,400654.6741097917,walking,0,2016-07-07 14:24:37.416,2016-07-07 14:24:33.769,10,7.692947,0,0,2016-07-07 14:24:47.492,400664.200939375,0,-0.08630371,88.55523,0.0.0.0,22.65.149.222,1,1,0.67,0
2016-07-07 14:24:47.764,14,359D9C92-F92A-4B76-879A-D4D13BE6E09A,my_iOS_device_1,1467923086.999999,31.74870938996947,-106.4868711960562,1136.261,0,10.546875,3,5,-9999,1467923087.720342,-31.21574401855469,-41.03981781005859,-102.1763916015625,38.07156372070312,29.78235626220703,25,400664.971261375,0.0057220458984375,-0.738311767578125,-0.6580352783203125,400664.965865375,-0.08558227952635036,0.07901625585876,-0.04953799206878193,400664.930874375,-0.05337812383891861,-0.02642838571229428,0.8476196396287706,-0.01243721507489681,-0.002913018921390176,-0.07984672486782074,-0.01509004831314087,0.01098352577537298,0.0255826860666275,XArbitraryCorrectedZVertical,0.4107324193581655,-0.02301372467852249,-0.02975489840766637,0.9109796343417078,-0.01748746633529663,-0.7497072815895081,-0.6615384817123413,-42.1388053894043,-36.43843078613281,-106.606689453125,1,400654.6741097917,walking,0,2016-07-07 14:24:37.416,2016-07-07 14:24:33.769,10,7.692947,0,0,2016-07-07 14:24:47.492,400664.200939375,0,-0.08630371,88.55523,0.0.0.0,22.65.149.222,1,1,0.67,0
2016-07-07 14:24:47.841,15,359D9C92-F92A-4B76-879A-D4D13BE6E09A,my_iOS_device_1,1467923086.999999,31.74870938996947,-106.4868711960562,1136.261,0,10.546875,3,5,-9999,1467923087.811851,-31.3886775970459,-40.79861068725586,-101.9462280273438,38.44869995117188,30.15949058532715,25,400665.030145375,-0.0217132568359375,-0.7331695556640625,-0.65557861328125,400665.000823375,-0.1060446777619742,0.08227516608468997,-0.01233230005982993,400665.000823375,-0.05963513841610591,-0.0193929459529778,0.8407696960910901,-0.09581883996725082,0.03990726172924042,-0.001401545014232397,0.00255616451613605,0.02446877583861351,0.007584391627460718,XArbitraryCorrectedZVertical,0.4076473278263075,-0.02101467382472442,-0.03117152272986162,0.9123652644477463,-0.01293214131146669,-0.7451566457748413,-0.6667640805244446,-41.89513397216797,-36.19602584838867,-106.78515625,1,400654.6741097917,walking,0,2016-07-07 14:24:37.416,2016-07-07 14:24:33.769,10,7.692947,0,0,2016-07-07 14:24:47.492,400664.200939375,0,-0.08630371,88.55523,0.0.0.0,22.65.149.222,1,1,0.67,0
2016-07-07 14:24:47.892,16,359D9C92-F92A-4B76-879A-D4D13BE6E09A,my_iOS_device_1,1467923086.999999,31.74870938996947,-106.4868711960562,1136.261,0,10.546875,3,5,-9999,1467923087.870678,-31.18115234375,-40.04054260253906,-102.2750244140625,38.49489593505859,30.20568656921387,25,400665.089000375,-0.009521484375,-0.74127197265625,-0.6398468017578125,400665.070744375,0.008800415822166842,-0.003169694329412309,-0.05009912011046162,400665.035777375,-0.06095107402826382,-0.01658429114618822,0.838438936872779,-0.0817909762263298,0.03244797140359879,-0.03759890422224998,-0.01062510255724192,0.01043070573359728,0.01295388676226139,XArbitraryCorrectedZVertical,0.4066138502228203,-0.01997314821694104,-0.03120499347442964,0.9128485627635786,-0.01108815427869558,-0.7436002492904663,-0.6685324907302856,-41.61002731323242,-35.79964065551758,-107.0299682617188,1,400654.6741097917,walking,0,2016-07-07 14:24:37.416,2016-07-07 14:24:33.769,10,7.692947,0,0,2016-07-07 14:24:47.492,400664.200939375,0,-0.08630371,88.55523,0.0.0.0,22.65.149.222,1,1,0.67,0
2016-07-07 14:24:47.991,17,359D9C92-F92A-4B76-879A-D4D13BE6E09A,my_iOS_device_1,1467923086.999999,31.74870938996947,-106.4868711960562,1136.261,0,10.546875,3,5,-9999,1467923087.961389,-30.48941421508789,-39.76488494873047,-102.0777587890625,38.53346633911133,30.24425888061523,25,400665.147856375,0.0134735107421875,-0.7913360595703125,-0.648345947265625,400665.140662375,-0.05817941717387104,0.05549308658230811,-0.01950925288148447,400665.105704375,-0.06489681216413026,-0.01426876634360885,0.8394425251302787,-0.08581304550170898,0.04944815114140511,-0.05679614096879959,0.01877629570662975,-0.01718843914568424,0.02974832989275455,XArbitraryCorrectedZVertical,0.4070696803471953,-0.01973191317123217,-0.03253176232029278,0.9126043016471946,-0.009529469534754753,-0.744270920753479,-0.6678098440170288,-41.70855712890625,-35.84628677368164,-106.9759902954102,1,400654.6741097917,walking,0,2016-07-07 14:24:37.416,2016-07-07 14:24:33.769,10,7.692947,0,0,2016-07-07 14:24:47.492,400664.200939375,0,-0.08630371,88.55523,0.0.0.0,22.65.149.222,1,1,0.67,0
2016-07-07 14:24:48.001,18,359D9C92-F92A-4B76-879A-D4D13BE6E09A,my_iOS_device_1,1467923086.999999,31.74870938996947,-106.4868711960562,1136.261,0,10.546875,3,5,-9999,1467923087.961389,-30.48941421508789,-39.76488494873047,-102.0777587890625,38.53346633911133,30.24425888061523,25,400665.2067053751,-0.001220703125,-0.7667694091796875,-0.581146240234375,400665.175619375,0.1173258281395499,0.0989566745207283,-0.05757088486478793,400665.175619375,-0.0699312735065318,-0.006997498505265866,0.8409164900823182,0.12758669257164,0.05659111589193344,-0.0466490313410759,-0.01358375698328018,-0.02433775551617146,0.03572128340601921,XArbitraryCorrectedZVertical,0.4078151807110372,-0.01746129364848901,-0.03334073974333306,0.9122884832546692,-0.004665754735469818,-0.7452545166015625,-0.6667637825012207,-41.13035202026367,-36.08689498901367,-107.1188659667969,1,400654.6741097917,walking,0,2016-07-07 14:24:37.416,2016-07-07 14:24:33.769,10,7.692947,0,0,2016-07-07 14:24:47.492,400664.200939375,0,-0.08630371,88.55523,0.0.0.0,22.65.149.222,1,1,0.67,0
2016-07-07 14:24:48.058,19,359D9C92-F92A-4B76-879A-D4D13BE6E09A,my_iOS_device_1,1467923086.999999,31.74870938996947,-106.4868711960562,1136.261,0,10.546875,3,5,-9999,1467923088.001789,-29.93601989746094,-40.24729156494141,-102.3408813476562,38.53431701660156,30.24510955810547,25,400665.265579375,0.0407867431640625,-0.74786376953125,-0.584625244140625,400665.245542375,-0.1670166856549023,-0.006256564348923154,-0.09411318344620119,400665.245542375,-0.07417396897194699,-0.00955658707831413,0.8494694653132009,-0.1567317694425583,-0.04862408712506294,-0.08319322764873505,0.0006956641445867717,-0.01374879945069551,0.0860259160399437,XArbitraryCorrectedZVertical,0.4116296046786164,-0.01962981610235129,-0.0357512763880206,0.9104381281056575,-0.006310898344963789,-0.75093013048172,-0.6603514552116394,-41.33839797973633,-37.36800384521484,-106.598274230957,1,400654.6741097917,walking,0,2016-07-07 14:24:37.416,2016-07-07 14:24:33.769,10,7.692947,0,0,2016-07-07 14:24:47.492,400664.200939375,0,-0.08630371,88.55523,0.0.0.0,22.65.149.222,1,1,0.67,0
2016-07-07 14:24:48.125,20,359D9C92-F92A-4B76-879A-D4D13BE6E09A,my_iOS_device_1,1467923087.99978,31.74870938996947,-106.4868711960562,1136.495,0,10.546875,4,5,-9999,1467923088.115837,-25.26676559448242,-38.69670104980469,-103.6892700195312,34.08385467529297,25.79464530944824,25,400665.324437375,-0.035675048828125,-1.042022705078125,-1.02587890625,400665.315463375,-1.27087991326177,3.897975943226937,-1.510003017011113,400665.280493375,-0.08420829162171324,0.02089767090617937,0.8319338404244698,-0.8844691514968872,1.637053608894348,-0.4153310656547546,0.06164165213704109,-0.1212537959218025,0.07471337169408798,XArbitraryCorrectedZVertical,0.4040967351010848,-0.007458083057266206,-0.03428198825985457,0.9140431887819622,0.01407245919108391,-0.7392351031303406,-0.6733003854751587,-40.98879623413086,-36.70827102661133,-106.9618835449219,1,400654.6741097917,walking,0,2016-07-07 14:24:37.416,2016-07-07 14:24:33.769,10,7.692947,0,0,2016-07-07 14:24:47.492,400664.200939375,0,-0.08630371,88.55523,0.0.0.0,22.65.149.222,1,1,0.67,0
2016-07-07 14:24:48.202,21,359D9C92-F92A-4B76-879A-D4D13BE6E09A,my_iOS_device_1,1467923087.99978,31.74870938996947,-106.4868711960562,1136.495,0,10.546875,4,5,-9999,1467923088.162792,-12.57330894470215,-33.286865234375,-107.7341918945312,26.05821990966797,17.76901245117188,25,400665.383276375,0.0337982177734375,-0.55120849609375,-0.6829376220703125,400665.350423375,-1.382764903294288,-0.8834360473420992,-1.833155511055181,400665.350423375,-0.1925242695166203,0.2562912166705095,0.7275985831857472,-1.37247359752655,-0.9258047938346863,-1.822234749794006,-0.1387202590703964,-0.1245183199644089,-0.1609496474266052,XArbitraryCorrectedZVertical,0.3627549643555355,0.08495886201700725,-0.04382406398797007,0.9269683268676226,0.1893031448125839,-0.6650782227516174,-0.7223816514015198,-21.05477142333984,-31.06781005859375,-114.2799682617188,1,400654.6741097917,walking,0,2016-07-07 14:24:37.416,2016-07-07 14:24:33.769,10,7.692947,0,0,2016-07-07 14:24:47.492,400664.200939375,0,-0.08630371,88.55523,0.0.0.0,22.65.149.222,1,1,0.67,0
2016-07-07 14:24:48.234,22,359D9C92-F92A-4B76-879A-D4D13BE6E09A,my_iOS_device_1,1467923087.99978,31.74870938996947,-106.4868711960562,1136.495,0,10.546875,4,5,-9999,1467923088.211465,-13.195876121521,-27.63582992553711,-109.3126831054688,41.05948257446289,32.7702751159668,25,400665.442130375,0.1352386474609375,-0.381805419921875,-0.668731689453125,400665.420343375,-3.579926864779788,-1.79002748141411,-0.6619705005683089,400665.420343375,-0.304824938141495,0.1680698130914356,0.5370850780607177,-3.569635629653931,-1.832395672798157,-0.6510498523712158,-0.09721852093935013,0.1539981663227081,0.1667992323637009,XArbitraryCorrectedZVertical,0.2736119873117303,0.03984897986671739,-0.1238526799616485,0.9530000277383089,0.1437273174524307,-0.5116336345672607,-0.8470970988273621,-30.33553314208984,-17.38217544555664,-115.091438293457,1,400654.6741097917,walking,0,2016-07-07 14:24:37.416,2016-07-07 14:24:33.769,10,7.692947,0,0,2016-07-07 14:24:47.492,400664.200939375,0,-0.08630371,88.55523,0.0.0.0,22.65.149.222,1,1,0.67,0
2016-07-07 14:24:48.303,23,359D9C92-F92A-4B76-879A-D4D13BE6E09A,my_iOS_device_1,1467923087.99978,31.74870938996947,-106.4868711960562,1136.495,0,10.546875,4,5,-9999,1467923088.26438,-27.2728157043457,-10.579345703125,-109.08251953125,48.53133392333984,40.24212646484375,25,400665.5010043751,0.054931640625,-0.3694610595703125,-0.628021240234375,400665.490255375,-0.4056702741040641,-4.287570311726847,1.094137363305898,400665.490255375,-0.2663671505202648,-0.03820803790504654,0.3628682035581948,-0.3953792452812195,-4.329937934875488,1.105057835578918,0.161474272608757,-0.02019546553492546,0.2377281039953232,XArbitraryCorrectedZVertical,0.1763147025211858,-0.0425792391550297,-0.1340031322837602,0.9742398547616381,-0.03571133688092232,-0.3549571335315704,-0.9342002868652344,-44.05916213989258,4.643783569335938,-111.8286590576172,1,400654.6741097917,walking,0,2016-07-07 14:24:37.416,2016-07-07 14:24:33.769,10,7.692947,0,0,2016-07-07 14:24:47.492,400664.200939375,0,-0.08630371,88.55523,0.0.0.0,22.65.149.222,1,1,0.67,0
2016-07-07 14:24:48.373,24,359D9C92-F92A-4B76-879A-D4D13BE6E09A,my_iOS_device_1,1467923087.99978,31.74870938996947,-106.4868711960562,1136.495,0,10.546875,4,5,-9999,1467923088.352768,-51.41459655761719,2.238861083984375,-102.7685546875,55.83539199829102,47.54618453979492,25,400665.559799375,-0.2318267822265625,-0.30828857421875,-0.6026458740234375,400665.560177375,2.049851602632748,-1.657793543808406,1.084884476414527,400665.525225375,-0.2010851634433709,-0.1465168939127467,0.3940730671358016,2.139271020889282,-0.9766688942909241,1.769433617591858,0.2726206481456757,-0.03509965538978577,0.2144545465707779,XArbitraryCorrectedZVertical,0.1870485386774555,-0.09101102211868009,-0.1124233267065496,0.9716433675190536,-0.1348032802343369,-0.3839524686336517,-0.9134596586227417,-60.21463012695312,9.600391387939453,-103.6843948364258,1,400654.6741097917,walking,0,2016-07-07 14:24:37.416,2016-07-07 14:24:33.769,10,7.692947,0,0,2016-07-07 14:24:47.492,400665.517650375,0,-0.08630371,88.55523,0.0.0.0,22.65.149.222,1,1,0.67,0
2016-07-07 14:24:48.456,25,359D9C92-F92A-4B76-879A-D4D13BE6E09A,my_iOS_device_1,1467923087.99978,31.74870938996947,-106.4868711960562,1136.495,0,10.546875,4,5,-9999,1467923088.406581,-58.71247100830078,-3.377716064453125,-99.44720458984375,49.10694885253906,40.81774139404297,25,400665.618682375,-0.16387939453125,-0.7714385986328125,-2.103988647460938,400665.595146375,1.811619858900255,1.590395328205117,0.4795956312230286,400665.595146375,-0.08851909166696649,-0.2479164879069914,0.5198629277751136,1.821910738945007,1.548028588294983,0.4905158579349518,-0.007111269515007734,0.3291128575801849,0.7214029431343079,XArbitraryCorrectedZVertical,0.2495057467778994,-0.1306549938422928,-0.07417710773752167,0.9566472242141101,-0.2129662483930588,-0.4967611730098724,-0.8413522839546204,-68.9613037109375,0.2136993408203125,-98.55310821533203,1,400654.6741097917,walking,0,2016-07-07 14:24:37.416,2016-07-07 14:24:33.769,10,7.692947,0,0,2016-07-07 14:24:47.492,400665.517650375,0,-0.08630371,88.55523,0.0.0.0,22.65.149.222,1,1,0.67,0
2016-07-07 14:24:48.471,26,359D9C92-F92A-4B76-879A-D4D13BE6E09A,my_iOS_device_1,1467923087.99978,31.74870938996947,-106.4868711960562,1136.495,0,10.546875,4,5,-9999,1467923088.456074,-60.47640991210938,-6.926845550537109,-97.7042236328125,44.47344207763672,36.18423461914062,25,400665.677541375,-0.280242919921875,-0.52490234375,-1.025482177734375,400665.665064375,0.2470207079619727,0.8842067661615682,-0.6843005736764053,400665.630105375,-0.07342988851304785,-0.24528595618449,0.5561652710146735,-0.7583393454551697,-2.878368854522705,-0.2398060709238052,0.006573992781341076,-0.1600397229194641,-0.4914274215698242,XArbitraryCorrectedZVertical,0.2679488824460045,-0.1275575331244767,-0.06859149101901728,0.9524850022435605,-0.2062352448701859,-0.5279332995414734,-0.8238649368286133,-65.35861206054688,-3.030677795410156,-100.93310546875,1,400654.6741097917,walking,0,2016-07-07 14:24:37.416,2016-07-07 14:24:33.769,10,7.692947,0,0,2016-07-07 14:24:47.492,400665.517650375,0,-0.08630371,88.55523,0.0.0.0,22.65.149.222,1,1,0.67,0
2016-07-07 14:24:48.534,27,359D9C92-F92A-4B76-879A-D4D13BE6E09A,my_iOS_device_1,1467923087.99978,31.74870938996947,-106.4868711960562,1136.495,0,10.546875,4,5,-9999,1467923088.500447,-61.54860687255859,-8.477436065673828,-95.43511962890625,44.36483764648438,36.07563018798828,25,400665.736381375,-0.2471466064453125,-0.5833282470703125,-0.7828521728515625,400665.700002375,-0.179375351009524,-1.320791280515381,-0.48589294193663,400665.700002375,-0.123059059909202,-0.2599896149369991,0.5559739793462587,-0.1690864115953445,-1.36315643787384,-0.4749733507633209,0.01498316321521997,0.009795982390642166,0.07755503058433533,XArbitraryCorrectedZVertical,0.263925182695917,-0.1411485600241905,-0.09413670044844756,0.9495045358347138,-0.2183523029088974,-0.5277708172798157,-0.8208411931991577,-69.18010711669922,-4.921405792236328,-98.27672576904297,1,400654.6741097917,walking,0,2016-07-07 14:24:37.416,2016-07-07 14:24:33.769,10,7.692947,0,0,2016-07-07 14:24:47.492,400665.517650375,0,-0.08630371,88.55523,0.0.0.0,22.65.149.222,1,1,0.67,0
2016-07-07 14:24:48.614,28,359D9C92-F92A-4B76-879A-D4D13BE6E09A,my_iOS_device_1,1467923087.99978,31.74870938996947,-106.4868711960562,1136.495,0,10.546875,4,5,-9999,1467923088.574295,-72.16683959960938,-9.752368927001953,-87.24664306640625,50.74841690063477,42.45920944213867,25,400665.795249375,-0.5210113525390625,-0.2105255126953125,-0.6449737548828125,400665.769925375,0.4691507134277378,-2.192022326897756,-0.2227784851911994,400665.769925375,-0.1754747089276594,-0.3559768091988986,0.5671408634649222,0.4794399440288544,-2.234386920928955,-0.2118590325117111,-0.07679866999387741,0.002325885929167271,0.07043889909982681,XArbitraryCorrectedZVertical,0.2594115914517054,-0.1934542067092333,-0.1321417754796373,0.9369202993318458,-0.2939441204071045,-0.5372227430343628,-0.7905622124671936,-74.12908935546875,-6.836971282958984,-94.48046112060547,1,400654.6741097917,walking,0,2016-07-07 14:24:37.416,2016-07-07 14:24:33.769,10,7.692947,0,0,2016-07-07 14:24:47.492,400665.517650375,0,-0.08630371,88.55523,0.0.0.0,22.65.149.222,1,1,0.67,0
2016-07-07 14:24:48.647,29,359D9C92-F92A-4B76-879A-D4D13BE6E09A,my_iOS_device_1,1467923087.99978,31.74870938996947,-106.4868711960562,1136.495,0,10.546875,4,5,-9999,1467923088.61696,-79.08425140380859,-12.09547805786133,-80.6038818359375,53.95558547973633,45.66637802124023,25,400665.854094375,-0.2024078369140625,-0.62725830078125,-0.6022186279296875,400665.839853375,0.8890603772482376,-1.214715177452544,-0.7999020050101289,400665.804892375,-0.1720165818753123,-0.4404258779667516,0.5921086499792012,0.8523018360137939,-2.186628818511963,-0.4255807101726532,-0.1672617197036743,0.3475864231586456,0.1056075245141983,XArbitraryCorrectedZVertical,0.2657027001254575,-0.2326186510697756,-0.143674123641016,0.924471949015489,-0.3537496328353882,-0.5581119656562805,-0.7505812644958496,-80.70520782470703,-9.395923614501953,-88.69503021240234,1,400654.6741097917,walking,0,2016-07-07 14:24:37.416,2016-07-07 14:24:33.769,10,7.692947,0,0,2016-07-07 14:24:47.492,400665.517650375,0,-0.08630371,88.55523,0.0.0.0,22.65.149.222,1,1,0.67,0
2016-07-07 14:24:48.848,30,359D9C92-F92A-4B76-879A-D4D13BE6E09A,my_iOS_device_1,1467923087.99978,31.74870938996947,-106.4868711960562,1136.495,0,10.546875,4,5,-9999,1467923088.732202,-90.38394927978516,-19.44220352172852,-62.288330078125,61.32459259033203,53.03538513183594,25,400665.912937375,-0.3596343994140625,-0.92095947265625,-0.7355499267578125,400665.909788375,0.7622598208985129,-0.4560860440681361,-0.08184346767198812,400665.8748193751,-0.179357630785849,-0.5534138986769909,0.6697462962202984,1.079445362091064,-2.090726852416992,-0.2870416343212128,0.2000801414251328,0.001661742338910699,0.2209900319576263,XArbitraryCorrectedZVertical,0.291769804227782,-0.2852911726162598,-0.1707890266498195,0.8968335612275669,-0.4120552241802216,-0.6207870841026306,-0.6669586300849915,-95.20237731933594,-20.0960578918457,-70.71829986572266,1,400654.6741097917,walking,0,2016-07-07 14:24:37.416,2016-07-07 14:24:33.769,10,7.692947,0,0,2016-07-07 14:24:47.492,400665.517650375,0,-0.08630371,88.55523,0.0.0.0,22.65.149.222,1,1,0.67,0
2016-07-07 14:24:48.851,31,359D9C92-F92A-4B76-879A-D4D13BE6E09A,my_iOS_device_1,1467923087.99978,31.74870938996947,-106.4868711960562,1136.495,0,10.546875,4,5,-9999,1467923088.732202,-90.38394927978516,-19.44220352172852,-62.288330078125,61.32459259033203,53.03538513183594,25,400665.971784375,-0.5010833740234375,-0.7644195556640625,-0.7928009033203125,400665.944746375,-1.30900972216898,-1.050383224492551,0.7303484931366384,400665.944746375,-0.1519751133178049,-0.6481790141736176,0.6692580777486787,-1.298745512962341,-1.092765092849731,0.7412729263305664,0.05644595995545387,0.07359031587839127,-0.1666372567415237,XArbitraryCorrectedZVertical,0.287589577210334,-0.3235481934482747,-0.1722526329792057,0.8848377433338056,-0.4734991788864136,-0.6204043030738831,-0.625217616558075,-100.1205215454102,-23.51739883422852,-62.37977600097656,1,400654.6741097917,walking,0,2016-07-07 14:24:37.416,2016-07-07 14:24:33.769,10,7.692947,0,0,2016-07-07 14:24:47.492,400665.517650375,0,-0.08630371,88.55523,0.0.0.0,22.65.149.222,1,1,0.67,0
2016-07-07 14:24:48.852,32,359D9C92-F92A-4B76-879A-D4D13BE6E09A,my_iOS_device_1,1467923087.99978,31.74870938996947,-106.4868711960562,1136.495,0,10.546875,4,5,-9999,1467923088.732202,-90.38394927978516,-19.44220352172852,-62.288330078125,61.32459259033203,53.03538513183594,25,400666.030658375,-0.593841552734375,-0.6649932861328125,-0.6898345947265625,400666.014668375,-0.8316908273618596,-0.4048878373757988,-0.03284955941390939,400665.979705375,-0.1658849979485555,-0.6540043763074967,0.6574057559901747,-0.07662547379732132,-0.4037986993789673,-0.3523901998996735,-0.01951026357710361,-0.1533541977405548,-0.1645601242780685,XArbitraryCorrectedZVertical,0.2794721646262804,-0.3282909127086001,-0.1775905470424113,0.88463663921026,-0.4815731048583984,-0.6110653877258301,-0.6282407641410828,-102.6506042480469,-18.87928009033203,-59.79004669189453,1,400654.6741097917,walking,0,2016-07-07 14:24:37.416,2016-07-07 14:24:33.769,10,7.692947,0,0,2016-07-07 14:24:47.492,400665.517650375,0,-0.08630371,88.55523,0.0.0.0,22.65.149.222,1,1,0.67,0
2016-07-07 14:24:48.882,33,359D9C92-F92A-4B76-879A-D4D13BE6E09A,my_iOS_device_1,1467923087.99978,31.74870938996947,-106.4868711960562,1136.495,0,10.546875,4,5,-9999,1467923088.85758,-96.73872375488281,-13.33422470092773,-47.45220947265625,63.8282585144043,55.5390510559082,25,400666.089495375,-0.6080169677734375,-0.7779998779296875,-0.8403472900390625,400666.084585375,-1.41091052127479,-1.073385745775892,0.9824483819296103,400666.049627375,-0.20887361119371,-0.6470698864954761,0.6045664305168125,-1.624610304832458,0.2232940495014191,0.7623417973518372,-0.02883106283843517,-0.2369077056646347,-0.06536877155303955,XArbitraryCorrectedZVertical,0.2490777953116841,-0.33127595829323,-0.1884863968282666,0.8903310449210796,-0.4959949851036072,-0.5684053897857666,-0.6564329862594604,-104.0749359130859,-18.30427169799805,-57.46115875244141,1,400654.6741097917,walking,0,2016-07-07 14:24:37.416,2016-07-07 14:24:33.769,10,7.692947,0,0,2016-07-07 14:24:47.492,400665.517650375,0,-0.08630371,88.55523,0.0.0.0,22.65.149.222,1,1,0.67,0
2016-07-07 14:24:48.942,34,359D9C92-F92A-4B76-879A-D4D13BE6E09A,my_iOS_device_1,1467923087.99978,31.74870938996947,-106.4868711960562,1136.495,0,10.546875,4,5,-9999,1467923088.918373,-97.15366363525391,-8.785972595214844,-43.90087890625,64.63545227050781,56.34624099731445,25,400666.148364375,-0.6967315673828125,-0.654205322265625,-0.7306671142578125,400666.119527375,0.159710835836488,-1.52069853826498,0.04868151946221244,400666.119527375,-0.2132889733756851,-0.7182449205788835,0.5170781367614312,0.169974684715271,-1.563078999519348,0.05960557982325554,-0.1215851083397865,-0.2492794543504715,-0.02018803544342518,XArbitraryCorrectedZVertical,0.2018322280535271,-0.3633196962304513,-0.1856849550456069,0.8903839888046415,-0.5720336437225342,-0.4943423569202423,-0.654525101184845,-103.3512420654297,-5.034748077392578,-53.61927795410156,1,400654.6741097917,walking,0,2016-07-07 14:24:37.416,2016-07-07 14:24:33.769,10,7.692947,0,0,2016-07-07 14:24:47.492,400665.517650375,0,-0.08630371,88.55523,0.0.0.0,22.65.149.222,1,1,0.67,0
2016-07-07 14:24:49.002,35,359D9C92-F92A-4B76-879A-D4D13BE6E09A,my_iOS_device_1,1467923087.99978,31.74870938996947,-106.4868711960562,1136.495,0,10.546875,4,5,-9999,1467923088.956919,-99.60092926025391,-3.718208312988281,-34.99908447265625,67.50379180908203,59.21458435058594,25,400666.207215375,-0.6348876953125,-0.60791015625,-0.5959625244140625,400666.189466375,0.5429487714465966,-1.255693237145593,-0.2188537846927497,400666.189466375,-0.1792742354335059,-0.8222117167328181,0.5403209752308282,0.5532124638557434,-1.298073053359985,-0.2079298794269562,0.02046322822570801,-0.1315695643424988,-0.09700252115726471,XArbitraryCorrectedZVertical,0.2091912448986296,-0.4054822810268641,-0.1853078123258801,0.8703356579630644,-0.628281831741333,-0.5144112706184387,-0.583646297454834,-107.4329376220703,-5.674068450927734,-44.80873870849609,1,400654.6741097917,walking,0,2016-07-07 14:24:37.416,2016-07-07 14:24:33.769,10,7.692947,0,0,2016-07-07 14:24:47.492,400665.517650375,0,-0.08630371,88.55523,0.0.0.0,22.65.149.222,1,1,0.67,0
2016-07-07 14:24:49.074,36,359D9C92-F92A-4B76-879A-D4D13BE6E09A,my_iOS_device_1,1467923087.99978,31.74870938996947,-106.4868711960562,1136.495,0,10.546875,4,5,-9999,1467923088.997352,-100.3617782592773,-4.200599670410156,-28.68719482421875,68.2095947265625,59.92038345336914,25,400666.266060375,-0.5174102783203125,-0.4232177734375,-0.393463134765625,400666.259387375,1.800724067932414,-2.722264624151367,-1.436009482968242,400666.224410375,-0.1818657332946223,-0.8766831056602118,0.580232552751298,0.8801395297050476,-1.930368185043335,-1.248598098754883,0.04483307525515556,0.008804991841316223,-0.0329708643257618,XArbitraryCorrectedZVertical,0.2210165544673002,-0.4285419027716541,-0.1997010972033123,0.853008201599514,-0.6428250074386597,-0.5482184290885925,-0.5350070595741272,-109.3643951416016,-6.596363067626953,-36.70311737060547,1,400654.6741097917,walking,0,2016-07-07 14:24:37.416,2016-07-07 14:24:33.769,10,7.692947,0,0,2016-07-07 14:24:47.492,400665.517650375,0,-0.08630371,88.55523,0.0.0.0,22.65.149.222,1,1,0.67,0
2016-07-07 14:24:49.118,37,359D9C92-F92A-4B76-879A-D4D13BE6E09A,my_iOS_device_1,1467923089.000068,31.74870938996947,-106.4868711960562,1136.611,0,10.546875,4,5,-9999,1467923089.075092,-101.2569046020508,-8.9678955078125,-18.61468505859375,71.57719421386719,63.28799057006836,25,400666.324908375,-0.6891937255859375,-0.47509765625,-0.544464111328125,400666.294324375,1.37381987782493,-1.79489973462841,-0.2737074462973297,400666.294324375,-0.1246512585666233,-1.071561240292666,0.7057219657591365,1.384081959724426,-1.837278008460999,-0.262783944606781,-0.02369511872529984,0.235055074095726,-0.1752417534589767,XArbitraryCorrectedZVertical,0.2667421127501498,-0.4966370423152031,-0.2263398355441751,0.7943365611199199,-0.6682451963424683,-0.6485835313796997,-0.3644005954265594,-112.6991577148438,-20.24813842773438,-15.49560165405273,1,400654.6741097917,walking,0,2016-07-07 14:24:37.416,2016-07-07 14:24:33.769,10,7.692947,0,0,2016-07-07 14:24:47.492,400665.517650375,0,-0.08630371,88.55523,0.0.0.0,22.65.149.222,1,1,0.67,0
2016-07-07 14:24:49.177,38,359D9C92-F92A-4B76-879A-D4D13BE6E09A,my_iOS_device_1,1467923089.000068,31.74870938996947,-106.4868711960562,1136.611,0,10.546875,4,5,-9999,1467923089.159775,-98.04008483886719,-16.23810195922852,4.0303955078125,77.69600677490234,69.40679931640625,25,400666.383772375,-0.7892913818359375,-0.718475341796875,-0.1971435546875,400666.364268375,-0.4894179019554589,-2.700028294313641,-0.2120123901684451,400666.329309375,-0.08304430865550716,-1.169866065228632,0.7179838728055824,0.8140752911567688,-2.59511661529541,0.1483334451913834,0.004215129185467958,0.1827699393033981,-0.2505348920822144,XArbitraryCorrectedZVertical,0.2712105812809253,-0.5286588801090918,-0.2262205611982339,0.7718736080306223,-0.6934088468551636,-0.6578676104545593,-0.2939292192459106,-113.4614105224609,-21.1282958984375,-5.594915390014648,1,400654.6741097917,walking,0,2016-07-07 14:24:37.416,2016-07-07 14:24:33.769,10,7.692947,0,0,2016-07-07 14:24:47.492,400665.517650375,0,-0.08630371,88.55523,0.0.0.0,22.65.149.222,1,1,0.67,0
2016-07-07 14:24:49.236,39,359D9C92-F92A-4B76-879A-D4D13BE6E09A,my_iOS_device_1,1467923089.000068,31.74870938996947,-106.4868711960562,1136.611,0,10.546875,4,5,-9999,1467923089.200162,-95.82635498046875,-16.92722702026367,11.39248657226562,78.97673797607422,70.68753051757812,25,400666.442621375,-0.5839080810546875,-0.7006378173828125,-0.0523834228515625,400666.399227375,-0.7934092182725156,0.1214121825161674,0.07865193542163716,400666.399227375,-0.1150892388434143,-1.3011715827815,0.7172424192497716,-0.7831685543060303,0.07905217260122299,0.08956801891326904,-0.07881276309490204,-0.05971675366163254,0.05804169550538063,XArbitraryCorrectedZVertical,0.2462086970176237,-0.5822459384657721,-0.2550754109395405,0.7316471003065705,-0.7263935208320618,-0.6573089957237244,-0.2007418870925903,-112.896728515625,-21.57400894165039,11.8360538482666,1,400654.6741097917,walking,0,2016-07-07 14:24:37.416,2016-07-07 14:24:33.769,10,7.692947,0,0,2016-07-07 14:24:47.492,400665.517650375,0,-0.08630371,88.55523,0.0.0.0,22.65.149.222,1,1,0.67,0
2016-07-07 14:24:49.314,40,359D9C92-F92A-4B76-879A-D4D13BE6E09A,my_iOS_device_1,1467923089.000068,31.74870938996947,-106.4868711960562,1136.611,0,10.546875,4,5,-9999,1467923089.279119,-95.75717163085938,-19.89044189453125,-2.6744384765625,73.81964874267578,65.53044128417969,25,400666.501476375,-0.3785552978515625,-0.6274261474609375,-0.5848541259765625,400666.504107375,0.1644259625464732,3.811491651039377,-0.5432537033914107,400666.469149375,-0.118548983310632,-1.011918087397823,0.7044546366071486,0.7693946361541748,6.159823894500732,-0.0865839496254921,0.1086939796805382,-0.1265820562839508,-0.02034140937030315,XArbitraryCorrectedZVertical,0.2742878635150624,-0.4719701061054161,-0.2155405877387878,0.8096620541364126,-0.6460322141647339,-0.6476183533668518,-0.4040207862854004,-112.4777374267578,-20.36787796020508,-16.88518905639648,1,400654.6741097917,walking,0,2016-07-07 14:24:37.416,2016-07-07 14:24:33.769,10,7.692947,0,0,2016-07-07 14:24:47.492,400665.517650375,0,-0.08630371,88.55523,0.0.0.0,22.65.149.222,1,1,0.67,0
2016-07-07 14:24:49.353,41,359D9C92-F92A-4B76-879A-D4D13BE6E09A,my_iOS_device_1,1467923089.000068,31.74870938996947,-106.4868711960562,1136.611,0,10.546875,4,5,-9999,1467923089.320665,-95.93013000488281,-21.37204360961914,-19.86376953125,69.99770355224609,61.70849609375,25,400666.560325375,-0.671356201171875,-0.6345062255859375,-0.7252197265625,400666.539070375,-1.087921545321653,3.330863245945616,-0.6210662104374548,400666.539070375,-0.1451602791688196,-0.7220059554496507,0.7268595756736869,-1.077679395675659,3.288503170013428,-0.6101500988006592,0.004069152288138866,0.01233502477407455,0.05615462735295296,XArbitraryCorrectedZVertical,0.3077524849691195,-0.3533894866857153,-0.1886412236674334,0.8630288334862194,-0.4938610196113586,-0.6645261645317078,-0.560808539390564,-104.1634979248047,-23.39279937744141,-44.20342254638672,1,400654.6741097917,walking,0,2016-07-07 14:24:37.416,2016-07-07 14:24:33.769,10,7.692947,0,0,2016-07-07 14:24:47.492,400665.517650375,0,-0.08630371,88.55523,0.0.0.0,22.65.149.222,1,1,0.67,0
2016-07-07 14:24:49.420,42,359D9C92-F92A-4B76-879A-D4D13BE6E09A,my_iOS_device_1,1467923089.000068,31.74870938996947,-106.4868711960562,1136.611,0,10.546875,4,5,-9999,1467923089.40015,-87.69779968261719,-22.54354858398438,-45.302490234375,65.4576416015625,57.16843795776367,25,400666.619177375,-0.3531494140625,-0.5528564453125,-0.6278076171875,400666.608974375,-0.1366063154833965,2.109702952338971,-0.004371845245474078,400666.608974375,-0.17864591911162,-0.5117023015017909,0.6932787607147581,-0.1263643950223923,2.067343473434448,0.006544087547808886,0.06969550997018814,0.07550963014364243,0.02764537371695042,XArbitraryCorrectedZVertical,0.3061375085625893,-0.2663870924391783,-0.1668019305548555,0.898607177133622,-0.376626044511795,-0.6390624642372131,-0.670635461807251,-94.23935699462891,-21.71531677246094,-63.23440170288086,1,400654.6741097917,walking,0,2016-07-07 14:24:37.416,2016-07-07 14:24:33.769,10,7.692947,0,0,2016-07-07 14:24:47.492,400665.517650375,0,-0.08630371,88.55523,0.0.0.0,22.65.149.222,1,1,0.67,0
2016-07-07 14:24:49.484,43,359D9C92-F92A-4B76-879A-D4D13BE6E09A,my_iOS_device_1,1467923089.000068,31.74870938996947,-106.4868711960562,1136.611,0,10.546875,4,5,-9999,1467923089.443437,-84.8233642578125,-21.6401252746582,-52.12860107421875,65.55760955810547,57.26840209960938,25,400666.678031375,-0.331390380859375,-0.659515380859375,-0.56640625,400666.678910375,0.8201923630393335,-0.3854861762023535,-0.05028687296731221,400666.643952375,-0.1780898003267504,-0.4631544998845143,0.6970224891671823,0.4267269372940063,0.8559077978134155,-0.06592140346765518,-0.05996093899011612,0.0610506683588028,0.02675181441009045,XArbitraryCorrectedZVertical,0.3118830059366002,-0.244418393576526,-0.1594179133419783,0.9041983014776698,-0.3425659239292145,-0.6419374942779541,-0.6859772801399231,-88.59639739990234,-21.26519393920898,-71.06105041503906,1,400654.6741097917,walking,0,2016-07-07 14:24:37.416,2016-07-07 14:24:33.769,10,7.692947,0,0,2016-07-07 14:24:47.492,400665.517650375,0,-0.08630371,88.55523,0.0.0.0,22.65.149.222,1,1,0.67,0
2016-07-07 14:24:49.535,44,359D9C92-F92A-4B76-879A-D4D13BE6E09A,my_iOS_device_1,1467923089.000068,31.74870938996947,-106.4868711960562,1136.611,0,10.546875,4,5,-9999,1467923089.523025,-83.71629333496094,-24.60272979736328,-53.1142578125,66.97460174560547,58.68539428710938,25,400666.736869375,-0.4376220703125,-0.669677734375,-0.41424560546875,400666.713869375,1.227449614836976,-2.292510052729171,0.07934009624731364,400666.713869375,-0.1417408048980477,-0.531974602945452,0.7517181965268218,1.23769199848175,-2.334869146347046,0.09025592356920242,-0.004882887005805969,0.02164005488157272,0.1428700983524323,XArbitraryCorrectedZVertical,0.3359599208388462,-0.2689771604414071,-0.1597986098408663,0.8883955329940335,-0.3705443441867828,-0.6828949451446533,-0.6295644640922546,-85.79793548583984,-22.15503692626953,-65.64541625976562,1,400654.6741097917,walking,0,2016-07-07 14:24:37.416,2016-07-07 14:24:33.769,10,7.692947,0,0,2016-07-07 14:24:47.492,400665.517650375,0,-0.08630371,88.55523,0.0.0.0,22.65.149.222,1,1,0.67,0
2016-07-07 14:24:49.592,45,359D9C92-F92A-4B76-879A-D4D13BE6E09A,my_iOS_device_1,1467923089.000068,31.74870938996947,-106.4868711960562,1136.611,0,10.546875,4,5,-9999,1467923089.562878,-87.83316802978516,-26.77301216125488,-44.4730224609375,69.27212524414062,60.98291397094727,25,400666.795724375,-0.59869384765625,-0.622589111328125,-0.291748046875,400666.783791375,1.125470785111226,-3.289309677141,0.2639456293216443,400666.783791375,-0.04082516363706665,-0.8407010772437939,0.8284370687960115,1.13571298122406,-3.331668138504028,0.2748613059520721,-0.03407999873161316,0.09240546822547913,0.1259347945451736,XArbitraryCorrectedZVertical,0.3597360858940349,-0.3809915942075631,-0.1812662594164094,0.8322126512172201,-0.503715991973877,-0.7368757128715515,-0.45087069272995,-97.69808959960938,-27.79277801513672,-42.94297790527344,1,400654.6741097917,walking,0,2016-07-07 14:24:37.416,2016-07-07 14:24:33.769,10,7.692947,0,0,2016-07-07 14:24:47.492,400665.517650375,0,-0.08630371,88.55523,0.0.0.0,22.65.149.222,1,1,0.67,0
2016-07-07 14:24:49.657,46,359D9C92-F92A-4B76-879A-D4D13BE6E09A,my_iOS_device_1,1467923089.000068,31.74870938996947,-106.4868711960562,1136.611,0,10.546875,4,5,-9999,1467923089.6029,-92.7457275390625,-27.25529289245605,-32.44744873046875,70.53179931640625,62.24258804321289,25,400666.854591375,-0.5020294189453125,-0.7856903076171875,-0.3351898193359375,400666.818744375,0.8979934184926904,-2.158390597071691,0.3898809246332023,400666.818744375,0.02068416134608843,-0.9832101690877242,0.8362241445172578,0.908235490322113,-2.200748920440674,0.4007968008518219,-0.03174670040607452,0.3990084528923035,0.08035247772932053,XArbitraryCorrectedZVertical,0.3623937502278193,-0.4276535247064557,-0.1833237447936422,0.8075739205774229,-0.5578529238700867,-0.7421175837516785,-0.3715664744377136,-100.5243072509766,-28.41563415527344,-35.33933258056641,1,400654.6741097917,walking,0,2016-07-07 14:24:37.416,2016-07-07 14:24:33.769,10,7.692947,0,0,2016-07-07 14:24:47.492,400666.830669375,0,-0.08630371,88.55523,0.0.0.0,22.65.149.222,1,1,0.67,0
2016-07-07 14:24:49.722,47,359D9C92-F92A-4B76-879A-D4D13BE6E09A,my_iOS_device_1,1467923089.000068,31.74870938996947,-106.4868711960562,1136.611,0,10.546875,4,5,-9999,1467923089.682714,-96.4820556640625,-24.0171012878418,-11.090576171875,71.78798675537109,63.498779296875,25,400666.913450375,-0.6390533447265625,-0.6432342529296875,-0.345062255859375,400666.888650375,-0.5169376770797927,-2.02746826630285,0.2045680559733466,400666.888650375,0.03120533844538953,-1.12911662936808,0.8118178307074296,-0.5066956877708435,-2.069826126098633,0.2154837846755981,0.09754219651222229,0.1197807043790817,0.06406618654727936,XArbitraryCorrectedZVertical,0.3412113644796526,-0.4863028303757457,-0.1991280809580872,0.7793794770793074,-0.6221393346786499,-0.7255393862724304,-0.2941687107086182,-106.8485260009766,-24.99556350708008,-10.95746231079102,1,400654.6741097917,walking,0,2016-07-07 14:24:37.416,2016-07-07 14:24:33.769,10,7.692947,0,0,2016-07-07 14:24:47.492,400666.830669375,0,-0.08630371,88.55523,0.0.0.0,22.65.149.222,1,1,0.67,0
2016-07-07 14:24:49.765,48,359D9C92-F92A-4B76-879A-D4D13BE6E09A,my_iOS_device_1,1467923089.000068,31.74870938996947,-106.4868711960562,1136.611,0,10.546875,4,5,-9999,1467923089.763678,-92.78033447265625,-20.33106994628906,3.13629150390625,75.65756988525391,67.36836242675781,25,400666.972282375,-0.6500091552734375,-0.6819610595703125,-0.2897186279296875,400666.958595375,-1.11463784474511,-0.7934901783696541,0.2692839357267081,400666.923611375,0.00605665117176273,-1.165944813229926,0.802500556934541,-0.6402744054794312,-1.048229932785034,0.01956692524254322,-0.05311397463083267,0.119990162551403,-0.08224400132894516,XArbitraryCorrectedZVertical,0.3275924450022624,-0.5057931151901136,-0.2126833119194467,0.7691698924390431,-0.638734757900238,-0.7190960049629211,-0.2737130224704742,-107.2521591186523,-24.65970230102539,-7.094057083129883,1,400654.6741097917,walking,0,2016-07-07 14:24:37.416,2016-07-07 14:24:33.769,10,7.692947,0,0,2016-07-07 14:24:47.492,400666.830669375,0,-0.08630371,88.55523,0.0.0.0,22.65.149.222,1,1,0.67,0
2016-07-07 14:24:49.826,49,359D9C92-F92A-4B76-879A-D4D13BE6E09A,my_iOS_device_1,1467923089.000068,31.74870938996947,-106.4868711960562,1136.611,0,10.546875,4,5,-9999,1467923089.763678,-92.78033447265625,-20.33106994628906,3.13629150390625,75.65756988525391,67.36836242675781,25,400667.031144375,-0.7244720458984375,-0.561248779296875,-0.30194091796875,400667.028512375,-0.4654627679501961,0.7433670898093817,0.2171075499659847,400666.993553375,-0.07867755656711335,-1.156346242542706,0.7588911979512045,-1.028395771980286,-0.5270907878875732,0.4266727566719055,-0.1234747618436813,0.04080897197127342,0.1461625844240189,XArbitraryCorrectedZVertical,0.28999663552086,-0.5194298348516919,-0.2328616430110215,0.7693309127200905,-0.664168655872345,-0.6881173253059387,-0.2921892106533051,-107.681999206543,-23.70113754272461,-2.0726318359375,1,400654.6741097917,walking,0,2016-07-07 14:24:37.416,2016-07-07 14:24:33.769,10,7.692947,0,0,2016-07-07 14:24:47.492,400666.830669375,0,-0.08630371,88.55523,0.0.0.0,22.65.149.222,1,1,0.67,0
2016-07-07 14:24:49.897,50,359D9C92-F92A-4B76-879A-D4D13BE6E09A,my_iOS_device_1,1467923089.000068,31.74870938996947,-106.4868711960562,1136.611,0,10.546875,4,5,-9999,1467923089.803844,-90.11648559570312,-19.53873825073242,7.83477783203125,78.26309967041016,69.97389221191406,25,400667.090017375,-0.5291748046875,-0.3152923583984375,-0.42059326171875,400667.063474375,-1.092562369837226,1.431203009832867,-0.1007234155878869,400667.063474375,-0.1269449015624354,-1.079731009620458,0.7254331748693802,-1.082347631454468,1.388823866844177,-0.08979818224906921,0.09381761401891708,0.09450514614582062,-0.1301401108503342,XArbitraryCorrectedZVertical,0.2732569890005503,-0.4989139003613217,-0.2328838423345309,0.7887842886164166,-0.6597965955734253,-0.6634595990180969,-0.3528310656547546,-104.2445297241211,-19.56300354003906,-0.6227169036865234,1,400654.6741097917,walking,0,2016-07-07 14:24:37.416,2016-07-07 14:24:33.769,10,7.692947,0,0,2016-07-07 14:24:47.492,400666.830669375,0,-0.08630371,88.55523,0.0.0.0,22.65.149.222,1,1,0.67,0
2016-07-07 14:24:49.955,51,359D9C92-F92A-4B76-879A-D4D13BE6E09A,my_iOS_device_1,1467923089.000068,31.74870938996947,-106.4868711960562,1136.611,0,10.546875,4,5,-9999,1467923089.944382,-76.63735961914062,-28.09117317199707,11.49722290039062,90.46379089355469,82.17458343505859,25,400667.148873375,-0.61199951171875,-0.8688201904296875,-0.6772918701171875,400667.133393375,1.795958341161717,1.736985035666893,-2.192374663109974,400667.098433375,-0.2033841539297792,-1.019477538688245,0.699175013045315,-1.726832509040833,-0.1493682265281677,-0.6714935898780823,0.1227966398000717,0.3282941281795502,-0.01968220062553883,XArbitraryCorrectedZVertical,0.2508842071837607,-0.4864170885349822,-0.2495157491197151,0.7988725940399691,-0.6519714593887329,-0.6435864567756653,-0.4009110629558563,-104.0910186767578,-19.50167465209961,-5.896266937255859,1,400654.6741097917,walking,0,2016-07-07 14:24:37.416,2016-07-07 14:24:33.769,10,7.692947,0,0,2016-07-07 14:24:47.492,400666.830669375,0,-0.08630371,88.55523,0.0.0.0,22.65.149.222,1,1,0.67,0
2016-07-07 14:24:50.000,52,359D9C92-F92A-4B76-879A-D4D13BE6E09A,my_iOS_device_1,1467923089.000068,31.74870938996947,-106.4868711960562,1136.611,0,10.546875,4,5,-9999,1467923089.984375,-73.17790222167969,-35.18764495849609,10.70889282226562,95.32021331787109,87.031005859375,25,400667.207704375,-0.7017059326171875,-0.9597625732421875,-0.4810638427734375,400667.168355375,1.236279591747243,-0.07814407060175906,-2.087919626202668,400667.168355375,-0.2320704398571649,-0.9302106348745547,0.8560962984100026,1.246494054794312,-0.1205224096775055,-2.076994657516479,-0.1456093639135361,-0.2365314215421677,-0.1961405724287033,XArbitraryCorrectedZVertical,0.3212651217916797,-0.4482595084098826,-0.2790663791810147,0.7861132810550276,-0.5254569053649902,-0.7552898526191711,-0.391704261302948,-101.1353607177734,-29.64554977416992,-11.94993591308594,1,400654.6741097917,walking,0,2016-07-07 14:24:37.416,2016-07-07 14:24:33.769,10,7.692947,0,0,2016-07-07 14:24:47.492,400666.830669375,0,-0.08630371,88.55523,0.0.0.0,22.65.149.222,1,1,0.67,0
2016-07-07 14:24:50.060,53,359D9C92-F92A-4B76-879A-D4D13BE6E09A,my_iOS_device_1,1467923089.000068,31.74870938996947,-106.4868711960562,1136.611,0,10.546875,4,5,-9999,1467923090.024895,-72.44496154785156,-39.66987228393555,9.91925048828125,98.45806884765625,90.16886138916016,25,400667.266589375,-0.5509185791015625,-0.7559661865234375,-0.21600341796875,400667.238247375,-0.3975233980134027,-0.07985035791217282,0.5677606443745379,400667.238247375,-0.25029542730425,-0.9080702244018883,0.8963911804119515,-0.3873091340065002,-0.1222280636429787,0.5786855220794678,-0.06560979038476944,0.1573755294084549,0.1429063975811005,XArbitraryCorrectedZVertical,0.3370515592585108,-0.4407940938030283,-0.289670038695905,0.7798641432657881,-0.4922515451908112,-0.7810785174369812,-0.384193629026413,-97.61112976074219,-39.99315643310547,-11.07420539855957,1,400654.6741097917,walking,0,2016-07-07 14:24:37.416,2016-07-07 14:24:33.769,10,7.692947,0,0,2016-07-07 14:24:47.492,400666.830669375,0,-0.08630371,88.55523,0.0.0.0,22.65.149.222,1,1,0.67,0
2016-07-07 14:24:50.123,54,359D9C92-F92A-4B76-879A-D4D13BE6E09A,my_iOS_device_1,1467923090.000067,31.74870938996947,-106.4868711960562,1136.492,0,10.546875,4,5,-9999,1467923090.105816,-74.55506896972656,-40.3243408203125,10.34613037109375,99.43479156494141,91.14558410644531,25,400667.325443375,-0.4126739501953125,-0.919525146484375,-0.1863555908203125,400667.308195375,0.9408846931128526,-0.6327345844375281,-0.3765459444229575,400667.273236375,-0.2163049561284552,-0.9410558360634369,0.8799467122230379,0.8332412242889404,-0.1660437285900116,0.7189996242523193,-0.03595234081149101,0.01473873853683472,0.1592614054679871,XArbitraryCorrectedZVertical,0.3331370343419903,-0.4487619668286844,-0.2790121958513417,0.78088706484618,-0.5149662494659424,-0.7707049250602722,-0.3752648234367371,-98.08113098144531,-38.7134895324707,-11.46210861206055,1,400654.6741097917,walking,0,2016-07-07 14:24:37.416,2016-07-07 14:24:33.769,10,7.692947,0,0,2016-07-07 14:24:47.492,400666.830669375,0,-0.08630371,88.55523,0.0.0.0,22.65.149.222,1,1,0.67,0
2016-07-07 14:24:50.202,55,359D9C92-F92A-4B76-879A-D4D13BE6E09A,my_iOS_device_1,1467923090.000067,31.74870938996947,-106.4868711960562,1136.492,0,10.546875,4,5,-9999,1467923090.186371,-70.05812072753906,-43.63113784790039,16.32293701171875,102.6357498168945,94.34654235839844,25,400667.384300375,-0.3199310302734375,-0.8816375732421875,-0.320556640625,400667.378102375,1.113918791250789,-0.1971053459667266,-2.107272551528165,400667.343136375,-0.1538626595222813,-1.034023911110104,0.9261385084852163,0.5405824184417725,-0.9682760238647461,-1.144194602966309,0.04949411377310753,0.08604860305786133,0.126185417175293,XArbitraryCorrectedZVertical,0.3531767340883771,-0.4707655461625671,-0.2799164745245996,0.7584805616063224,-0.5164130330085754,-0.7993054389953613,-0.3072919845581055,-93.48182678222656,-36.52436828613281,-0.7905960083007812,1,400654.6741097917,walking,0,2016-07-07 14:24:37.416,2016-07-07 14:24:33.769,10,7.692947,0,0,2016-07-07 14:24:47.492,400666.830669375,0,-0.08630371,88.55523,0.0.0.0,22.65.149.222,1,1,0.67,0
2016-07-07 14:24:50.238,56,359D9C92-F92A-4B76-879A-D4D13BE6E09A,my_iOS_device_1,1467923090.000067,31.74870938996947,-106.4868711960562,1136.492,0,10.546875,4,5,-9999,1467923090.234301,-66.4559326171875,-48.38759613037109,19.52822875976562,109.2509536743164,100.9617462158203,25,400667.443138375,-0.7466583251953125,-0.9495697021484375,-0.333770751953125,400667.448036375,-0.07440552506350583,-0.357572519552797,-0.116693327380656,400667.413077375,-0.1755657460249543,-1.035354401697124,1.06877491354781,0.5772859454154968,-0.2940561473369598,-1.506168723106384,-0.01685831137001514,-0.003850993933156133,-0.1115074828267097,XArbitraryCorrectedZVertical,0.403538895123487,-0.4630308056069127,-0.3166316838855535,0.722843835099479,-0.4138515293598175,-0.8766116499900818,-0.2455176711082458,-89.67561340332031,-44.87656402587891,4.229160308837891,1,400654.6741097917,walking,0,2016-07-07 14:24:37.416,2016-07-07 14:24:33.769,10,7.692947,0,0,2016-07-07 14:24:47.492,400666.830669375,0,-0.08630371,88.55523,0.0.0.0,22.65.149.222,1,1,0.67,0
