loggingTime,loggingSample,identifierForVendor,deviceID,locationTimestamp_since1970,locationLatitude,locationLongitude,locationAltitude,locationSpeed,locationCourse,locationVerticalAccuracy,locationHorizontalAccuracy,locationFloor,locationHeadingTimestamp_since1970,locationHeadingX,locationHeadingY,locationHeadingZ,locationTrueHeading,locationMagneticHeading,locationHeadingAccuracy,accelerometerTimestamp_sinceReboot,accelerometerAccelerationX,accelerometerAccelerationY,accelerometerAccelerationZ,gyroTimestamp_sinceReboot,gyroRotationX,gyroRotationY,gyroRotationZ,motionTimestamp_sinceReboot,motionYaw,motionRoll,motionPitch,motionRotationRateX,motionRotationRateY,motionRotationRateZ,motionUserAccelerationX,motionUserAccelerationY,motionUserAccelerationZ,motionAttitudeReferenceFrame,motionQuaternionX,motionQuaternionY,motionQuaternionZ,motionQuaternionW,motionGravityX,motionGravityY,motionGravityZ,motionMagneticFieldX,motionMagneticFieldY,motionMagneticFieldZ,motionMagneticFieldCalibrationAccuracy,activityTimestamp_sinceReboot,activity,activityActivityConfidence,activityActivityStartDate,pedometerStartDate,pedometerNumberofSteps,pedometerDistance,pedometerFloorAscended,pedometerFloorDescended,pedometerEndDate,altimeterTimestamp_sinceReboot,altimeterReset,altimeterRelativeAltitude,altimeterPressure,IP_en0,IP_pdp_ip0,deviceOrientation,batteryState,batteryLevel,state
2016-07-07 14:55:24.371,1,359D9C92-F92A-4B76-879A-D4D13BE6E09A,my_iOS_device_1,1467924479.000134,31.74952792472369,-106.4866603911915,1134.006,0,13.0078125,4,5,-9999,1467924479.700775,-16.76964569091797,61.68918228149414,-62.2724609375,22.94441413879395,14.65520668029785,25,401854.0873775,-0.051483154296875,0.13934326171875,-0.9848480224609375,401854.0631195,-0.00494628909260417,0.04561382420255017,-0.01166384662622004,401854.0631195,0.21661944230619,-0.05167927040693032,-0.1379475058914209,0.002154194517061114,-5.836613127030432e-05,-0.0001838039461290464,0.001223535276949406,-0.002866854891180992,-0.02930046617984772,XArbitraryCorrectedZVertical,-0.06570609179783807,-0.03307182220367897,0.1095752634761329,0.9912528565965864,-0.05116555094718933,0.1375104039907455,-0.989177942276001,-13.74300575256348,58.48930740356445,-64.92859649658203,1,401818.546124625,automotive,2,2016-07-07 14:45:23.514,null,0,0,0,0,null,401853.0921965,0,-2.030273,88.59132,0.0.0.0,22.65.149.222,5,1,0.55,2
2016-07-07 14:55:24.376,2,359D9C92-F92A-4B76-879A-D4D13BE6E09A,my_iOS_device_1,1467924479.000134,31.74952792472369,-106.4866603911915,1134.006,0,13.0078125,4,5,-9999,1467924479.748854,-17.32655715942383,61.82748794555664,-62.206298828125,22.94789123535156,14.65868282318115,25,401854.1461825,-0.0491943359375,0.13348388671875,-1.01934814453125,401854.1330395,-0.007065100055871211,0.04774648360348562,-0.01167449927058036,401854.0980885,0.2165745023153678,-0.05180523864805189,-0.1379898617824016,0.004288014490157366,-7.081971125444397e-05,-0.0001672889338806272,-0.002085389336571097,-0.0004826608928851783,-0.0251165684312582,XArbitraryCorrectedZVertical,-0.06572093553912922,-0.03313502408427205,0.1095575145496684,0.9912517237394697,-0.05128985643386841,0.1375523656606674,-0.9891656637191772,-13.74803924560547,58.48964691162109,-64.92722320556641,1,401818.546124625,automotive,2,2016-07-07 14:45:23.514,null,0,0,0,0,null,401853.0921965,0,-2.030273,88.59132,0.0.0.0,22.65.149.222,5,1,0.55,2
2016-07-07 14:55:24.382,3,359D9C92-F92A-4B76-879A-D4D13BE6E09A,my_iOS_device_1,1467924479.000134,31.74952792472369,-106.4866603911915,1134.006,0,13.0078125,4,5,-9999,1467924479.748854,-17.32655715942383,61.82748794555664,-62.206298828125,22.94789123535156,14.65868282318115,25,401854.2049795,-0.0540313720703125,0.138580322265625,-0.967498779296875,401854.2029915,-0.01030297130918955,0.04246809832294857,-0.01171178352584147,401854.1680295,0.2165851737363159,-0.05160812646386374,-0.1380521484460422,-0.003178870305418968,0.001034952700138092,0.0008464463753625751,-0.003074266016483307,0.001408769749104977,0.02331635914742947,XArbitraryCorrectedZVertical,-0.06576243940916658,-0.03304098254257323,0.1095568907658933,0.991252179176047,-0.05109443515539169,0.1376140564680099,-0.9891672134399414,-13.73074722290039,58.48305892944336,-64.93681335449219,1,401818.546124625,automotive,2,2016-07-07 14:45:23.514,null,0,0,0,0,null,401853.0921965,0,-2.030273,88.59132,0.0.0.0,22.65.149.222,5,1,0.55,2
2016-07-07 14:55:24.625,4,359D9C92-F92A-4B76-879A-D4D13BE6E09A,my_iOS_device_1,1467924479.000134,31.74952792472369,-106.4866603911915,1134.006,0,13.0078125,4,5,-9999,1467924479.891093,-16.94368362426758,61.58547592163086,-61.7105712890625,22.9636058807373,14.67439842224121,25,401854.2637775,-0.0506591796875,0.1450042724609375,-0.9874267578125,401854.2379745001,-0.006011819844744872,0.04667882232247286,-0.01060204429960545,401854.2379745001,0.2166504038116409,-0.05145152395626671,-0.1380872199686665,0.001088194432668388,0.001009412808343768,0.0008783232187852263,0.005269724410027266,-0.004317496437579393,-0.02569170109927654,XArbitraryCorrectedZVertical,-0.06578733157423446,-0.03296737103744977,0.1095843875281158,0.991249938946421,-0.05093928053975105,0.1376487910747528,-0.9891703724861145,-13.73250389099121,58.50711441040039,-64.91477203369141,1,401818.546124625,automotive,2,2016-07-07 14:45:23.514,null,0,0,0,0,null,401853.0921965,0,-2.030273,88.59132,0.0.0.0,22.65.149.222,5,1,0.55,2
2016-07-07 14:55:24.629,5,359D9C92-F92A-4B76-879A-D4D13BE6E09A,my_iOS_device_1,1467924479.000134,31.74952792472369,-106.4866603911915,1134.006,0,13.0078125,4,5,-9999,1467924479.891093,-16.94368362426758,61.58547592163086,-61.7105712890625,22.9636058807373,14.67439842224121,25,401854.3225765,-0.0479888916015625,0.1351318359375,-1.013671875,401854.3079105,-0.007092264298990019,0.04562447684691048,-0.009545568295171013,401854.2729425,0.21663412217168,-0.05147511776684238,-0.1383089418214597,0.004287786316126585,0.0009899270953610539,0.000903150939848274,0.0003018671995960176,0.007135869469493628,0.001711895340122283,XArbitraryCorrectedZVertical,-0.06589624038056829,-0.03299028543946716,0.1095790963100476,0.991242527448342,-0.05096104741096497,0.1378684043884277,-0.989138662815094,-13.72590923309326,58.50265502929688,-64.92018127441406,1,401818.546124625,automotive,2,2016-07-07 14:45:23.514,null,0,0,0,0,null,401853.0921965,0,-2.030273,88.59132,0.0.0.0,22.65.149.222,5,1,0.55,2
2016-07-07 14:55:24.637,6,359D9C92-F92A-4B76-879A-D4D13BE6E09A,my_iOS_device_1,1467924479.000134,31.74952792472369,-106.4866603911915,1134.006,0,13.0078125,4,5,-9999,1467924479.931831,-17.36136436462402,61.65461349487305,-62.107177734375,22.96591567993164,14.67670917510986,25,401854.3813715,-0.0533447265625,0.1369476318359375,-0.968841552734375,401854.3428875,-0.01134133781821144,0.0456551031994464,-0.01277891217463622,401854.3428875,0.216636854869139,-0.05138574850351739,-0.1383110975355248,-0.004242320079356432,-1.270114444196224e-05,-0.001297802082262933,-0.001373460865579545,0.005455267615616322,0.02126265689730644,XArbitraryCorrectedZVertical,-0.06590216063337404,-0.03294619644776598,0.1095775254493019,0.9912437738921036,-0.05087263137102127,0.1378705352544785,-0.989142894744873,-13.71792221069336,58.50388336181641,-64.92076110839844,1,401818.546124625,automotive,2,2016-07-07 14:45:23.514,null,0,0,0,0,null,401853.0921965,0,-2.030273,88.59132,0.0.0.0,22.65.149.222,5,1,0.55,2
2016-07-07 14:55:24.643,7,359D9C92-F92A-4B76-879A-D4D13BE6E09A,my_iOS_device_1,1467924479.000134,31.74952792472369,-106.4866603911915,1134.006,0,13.0078125,4,5,-9999,1467924480.027507,-17.39616966247559,61.62004470825195,-62.2724609375,22.98421859741211,14.6950101852417,25,401854.4401555,-0.0519256591796875,0.1408233642578125,-0.9876708984375,401854.4128225,-0.006019276695797094,0.04561915052473033,-0.01060470746069553,401854.4128225,0.2166589868866675,-0.05120922940128463,-0.1382071153170838,0.001080172136425972,-4.742770033772103e-05,0.0008771235006861389,0.003106599906459451,-0.006007904652506113,-0.02281196601688862,XArbitraryCorrectedZVertical,-0.06585991209202154,-0.03285392447483742,0.1095817457131068,0.9912491778721806,-0.05069876462221146,0.1377675533294678,-0.9891662001609802,-13.70895767211914,58.51248931884766,-64.91490173339844,1,401818.546124625,automotive,2,2016-07-07 14:45:23.514,null,0,0,0,0,null,401854.4064665,0,-2.072388,88.59177,0.0.0.0,22.65.149.222,5,1,0.55,2
2016-07-07 14:55:24.762,8,359D9C92-F92A-4B76-879A-D4D13BE6E09A,my_iOS_device_1,1467924479.000134,31.74952792472369,-106.4866603911915,1134.006,0,13.0078125,4,5,-9999,1467924480.075656,-16.94368362426758,61.79290390014648,-62.437744140625,22.97981643676758,14.69060897827148,25,401854.4989555,-0.0484161376953125,0.1326446533203125,-1.013565063476562,401854.4827575,-0.007086139028482837,0.04562580842745553,-0.01061269694396576,401854.4477815,0.2166442837603983,-0.05124837074200981,-0.1383297598940606,0.002152628032490611,-5.269859320833348e-05,-0.0001820908801164478,-0.00118904490955174,0.002934342017397285,0.001476417994126678,XArbitraryCorrectedZVertical,-0.0659188181709052,-0.03287934339356054,0.1095768477919633,0.9912449609541069,-0.05073661357164383,0.13788902759552,-0.9891473054885864,-13.70572185516357,58.50149917602539,-64.92548370361328,1,401818.546124625,automotive,2,2016-07-07 14:45:23.514,null,0,0,0,0,null,401854.4064665,0,-2.072388,88.59177,0.0.0.0,22.65.149.222,5,1,0.55,2
2016-07-07 14:55:24.769,9,359D9C92-F92A-4B76-879A-D4D13BE6E09A,my_iOS_device_1,1467924479.000134,31.74952792472369,-106.4866603911915,1134.006,0,13.0078125,4,5,-9999,1467924480.075656,-16.94368362426758,61.79290390014648,-62.437744140625,22.97981643676758,14.69060897827148,25,401854.5577555,-0.055023193359375,0.1394195556640625,-0.9647369384765625,401854.5527105,-0.01136850206133025,0.04353309644287126,-0.01064998119922687,401854.5177135,0.2166741553581616,-0.05125332264623227,-0.1382555561969202,0.001108318101614714,0.003133605467155576,-0.0001822664926294237,-0.001259916578419507,-0.001142553403042257,0.01145037170499563,XArbitraryCorrectedZVertical,-0.06588126453023493,-0.03287884676325423,0.1095911502438303,0.9912458929083253,-0.05074203759431839,0.1378155201673508,-0.9891572594642639,-13.71024036407471,58.50614166259766,-64.92034149169922,1,401818.546124625,automotive,2,2016-07-07 14:45:23.514,null,0,0,0,0,null,401854.4064665,0,-2.072388,88.59177,0.0.0.0,22.65.149.222,5,1,0.55,2
2016-07-07 14:55:25.009,10,359D9C92-F92A-4B76-879A-D4D13BE6E09A,my_iOS_device_1,1467924480.000135,31.74952792472369,-106.4866603911915,1133.939,0,13.0078125,4,5,-9999,1467924480.193279,-18.16191864013672,62.10405349731445,-62.47076416015625,23.00164413452148,14.71243762969971,25,401854.6165525,-0.0518646240234375,0.1395721435546875,-0.9930572509765625,401854.5876775,-0.003885552030425609,0.04560583471927993,-0.01058872849415505,401854.5876775,0.2166734678792642,-0.05123374610658808,-0.1383155124389088,0.003212932962924242,-5.88038565183524e-05,0.0008938484825193882,0.00424397736787796,-0.0008967614849098027,-0.02278235368430614,XArbitraryCorrectedZVertical,-0.065912075673253,-0.03287230137077884,0.109590702314428,0.9912441112305466,-0.05072224885225296,0.1378749161958694,-0.9891500473022461,-13.71351337432861,58.51486587524414,-64.91179656982422,1,401818.546124625,automotive,2,2016-07-07 14:45:23.514,null,0,0,0,0,null,401854.4064665,0,-2.072388,88.59177,0.0.0.0,22.65.149.222,5,1,0.55,2
2016-07-07 14:55:25.014,11,359D9C92-F92A-4B76-879A-D4D13BE6E09A,my_iOS_device_1,1467924480.000135,31.74952792472369,-106.4866603911915,1133.939,0,13.0078125,4,5,-9999,1467924480.193279,-18.16191864013672,62.10405349731445,-62.47076416015625,23.00164413452148,14.71243762969971,25,401854.6753635,-0.0473785400390625,0.1305999755859375,-1.0177001953125,401854.6576215,-0.008148207671206437,0.04457545769352828,-0.01275760688591558,401854.6576215,0.2166491524713378,-0.05145256855753797,-0.1385445025633579,-0.00105067016556859,-0.001089333556592464,-0.001275257905945182,0.001193418633192778,0.005056248512119055,0.0112936208024621,XArbitraryCorrectedZVertical,-0.06601402166178748,-0.03299209537707144,0.1095879270937349,0.9912336539998721,-0.05093707144260406,0.1381017118692398,-0.9891073703765869,-13.71488380432129,58.50628662109375,-64.91923522949219,1,401818.546124625,automotive,2,2016-07-07 14:45:23.514,null,0,0,0,0,null,401854.4064665,0,-2.072388,88.59177,0.0.0.0,22.65.149.222,5,1,0.55,2
2016-07-07 14:55:25.020,12,359D9C92-F92A-4B76-879A-D4D13BE6E09A,my_iOS_device_1,1467924480.000135,31.74952792472369,-106.4866603911915,1133.939,0,13.0078125,4,5,-9999,1467924480.234482,-17.81385040283203,62.51891708374023,-62.2724609375,23.01537704467773,14.72616863250732,25,401854.7341475,-0.0542755126953125,0.1424102783203125,-0.9657440185546875,401854.7275575,-0.01028193233657792,0.04458877349897867,-0.01277358585245606,401854.6925885,0.2166359849004131,-0.0514178588229486,-0.1383244847070137,-0.003168519819155335,0.00104373402427882,-0.001286012819036841,-0.0001210909831570461,-0.003194466466084123,0.01570498198270798,XArbitraryCorrectedZVertical,-0.06590705321943219,-0.03296279218469539,0.1095782729899322,0.9912428142265829,-0.0509043000638485,0.137883797287941,-0.9891394376754761,-13.71822929382324,58.50667572021484,-64.91818237304688,1,401818.546124625,automotive,2,2016-07-07 14:45:23.514,null,0,0,0,0,null,401854.4064665,0,-2.072388,88.59177,0.0.0.0,22.65.149.222,5,1,0.55,2
2016-07-07 14:55:25.025,13,359D9C92-F92A-4B76-879A-D4D13BE6E09A,my_iOS_device_1,1467924480.000135,31.74952792472369,-106.4866603911915,1133.939,0,13.0078125,4,5,-9999,1467924480.274327,-17.29175186157227,62.00033950805664,-62.17333984375,23.01598358154297,14.72677707672119,25,401854.7929145001,-0.0532684326171875,0.1417388916015625,-0.99261474609375,401854.7625255,-0.003879426759918426,0.04560716629982497,-0.0116558571429498,401854.7625255,0.2165985726999335,-0.0514214318607843,-0.1383294280118258,0.003218434983864427,-5.644583143293858e-05,-0.0001726808259263635,-0.002040199236944318,-0.001185202389024198,-0.01435569580644369,XArbitraryCorrectedZVertical,-0.0659099250442198,-0.03296359225558357,0.1095598929895469,0.9912446283407366,-0.05090779811143875,0.1378886997699738,-0.9891385436058044,-13.72455978393555,58.50907897949219,-64.9146728515625,1,401818.546124625,automotive,2,2016-07-07 14:45:23.514,null,0,0,0,0,null,401854.4064665,0,-2.072388,88.59177,0.0.0.0,22.65.149.222,5,1,0.55,2
2016-07-07 14:55:25.163,14,359D9C92-F92A-4B76-879A-D4D13BE6E09A,my_iOS_device_1,1467924480.000135,31.74952792472369,-106.4866603911915,1133.939,0,13.0078125,4,5,-9999,1467924480.357854,-16.42158126831055,62.17319107055664,-61.67767333984375,22.98571014404297,14.69650363922119,25,401854.8517045,-0.0460968017578125,0.133392333984375,-1.018569946289062,401854.8324475,-0.007078682177430616,0.04668548022519806,-0.01061003378287569,401854.8324475,0.2166426243342036,-0.05130111852933623,-0.13831377982918,1.932278792082798e-05,0.001023134915158153,0.0008730379631742835,0.002220176858827472,0.002767063910141587,0.01110423635691404,XArbitraryCorrectedZVertical,-0.06590803234446049,-0.03290458430785976,0.1095776202771668,0.991244755213552,-0.05078890174627304,0.137873187661171,-0.9891468286514282,-13.71406555175781,58.4970703125,-64.92772674560547,1,401818.546124625,automotive,2,2016-07-07 14:45:23.514,null,0,0,0,0,null,401854.4064665,0,-2.072388,88.59177,0.0.0.0,22.65.149.222,5,1,0.55,2
2016-07-07 14:55:25.285,15,359D9C92-F92A-4B76-879A-D4D13BE6E09A,my_iOS_device_1,1467924480.000135,31.74952792472369,-106.4866603911915,1133.939,0,13.0078125,4,5,-9999,1467924480.400766,-16.66522979736328,62.41519546508789,-62.23944091796875,22.96878051757812,14.67957305908203,25,401854.9107105,-0.0554351806640625,0.1378021240234375,-0.9635772705078125,401854.9024125,-0.01028060075603288,0.04564711371617616,-0.01170379404257123,401854.8674435,0.2166666180080666,-0.05126674400333306,-0.138201452900082,-0.004277527797967196,-0.003188540693372488,0.000830348813906312,-0.0005443544941954315,0.001367698889225721,0.02193992398679256,XArbitraryCorrectedZVertical,-0.06585382781115583,-0.03288238108984162,0.1095873709496134,0.9912480166460895,-0.05075569450855255,0.1377619355916977,-0.9891640543937683,-13.70625495910645,58.49342727661133,-64.93264770507812,1,401818.546124625,automotive,2,2016-07-07 14:45:23.514,null,0,0,0,0,null,401854.4064665,0,-2.072388,88.59177,0.0.0.0,22.65.149.222,5,1,0.55,2
2016-07-07 14:55:25.292,16,359D9C92-F92A-4B76-879A-D4D13BE6E09A,my_iOS_device_1,1467924480.000135,31.74952792472369,-106.4866603911915,1133.939,0,13.0078125,4,5,-9999,1467924480.435951,-17.0481071472168,62.17319107055664,-62.206298828125,22.96358489990234,14.67437648773193,25,401854.9694415,-0.051239013671875,0.1372222900390625,-0.99505615234375,401854.9373785,-0.004925250119992543,0.04773449937858026,-0.01272564895283463,401854.9373785,0.2166512684328139,-0.05127957915188265,-0.1383770974555169,0.00217195856384933,0.002072745468467474,-0.001241837861016393,-0.003172670025378466,9.509833762422204e-05,-0.02428852207958698,XArbitraryCorrectedZVertical,-0.06594046401073418,-0.03289755145158565,0.1095817631254343,0.9912423737435933,-0.05076714977622032,0.1379359066486359,-0.989139199256897,-13.70771408081055,58.50714874267578,-64.91997528076172,1,401818.546124625,automotive,2,2016-07-07 14:45:23.514,null,0,0,0,0,null,401854.4064665,0,-2.072388,88.59177,0.0.0.0,22.65.149.222,5,1,0.55,2
2016-07-07 14:55:25.298,17,359D9C92-F92A-4B76-879A-D4D13BE6E09A,my_iOS_device_1,1467924480.000135,31.74952792472369,-106.4866603911915,1133.939,0,13.0078125,4,5,-9999,1467924480.477246,-17.60501480102539,62.24234390258789,-62.2724609375,22.9676628112793,14.6784553527832,25,401855.0282435,-0.04669189453125,0.1290740966796875,-1.011978149414062,401855.0073245,-0.007081345338520694,0.04456879979080308,-0.01274961740264535,401854.9723335,0.2166547207707351,-0.05123292937633379,-0.1383414701418296,0.001093187252990901,0.002077555982396007,0.0008843804243952036,-0.0005177558632567525,-0.000678330659866333,-0.005909665487706661,XArbitraryCorrectedZVertical,-0.06592529873522179,-0.03287265531161231,0.1095816166667207,0.9912442246026536,-0.05072125792503357,0.1379006206989288,-0.9891464710235596,-13.70865726470947,58.50728988647461,-64.91965484619141,1,401818.546124625,automotive,2,2016-07-07 14:45:23.514,null,0,0,0,0,null,401854.4064665,0,-2.072388,88.59177,0.0.0.0,22.65.149.222,5,1,0.55,2
2016-07-07 14:55:25.319,18,359D9C92-F92A-4B76-879A-D4D13BE6E09A,my_iOS_device_1,1467924480.000135,31.74952792472369,-106.4866603911915,1133.939,0,13.0078125,4,5,-9999,1467924480.516733,-17.39616966247559,61.96577072143555,-62.53680419921875,22.97176742553711,14.68255996704102,25,401855.0870255,-0.0561981201171875,0.139739990234375,-0.9621124267578125,401855.0772525001,-0.008163121373310881,0.04245611409804322,-0.01276293320809574,401855.0422905,0.2165706134035264,-0.05136165297599495,-0.138049381770907,-0.004264894872903824,-0.003184230532497168,-0.001303372206166387,-0.003958920482546091,-0.002479481045156717,0.02360396087169647,XArbitraryCorrectedZVertical,-0.06577480822430115,-0.03291819807854512,0.1095415441504524,0.9912571396683227,-0.05085064843297005,0.1376113146543503,-0.9891801476478577,-13.71396350860596,58.50480651855469,-64.92076110839844,1,401818.546124625,automotive,2,2016-07-07 14:45:23.514,null,0,0,0,0,null,401854.4064665,0,-2.072388,88.59177,0.0.0.0,22.65.149.222,5,1,0.55,2
2016-07-07 14:55:25.537,19,359D9C92-F92A-4B76-879A-D4D13BE6E09A,my_iOS_device_1,1467924480.000135,31.74952792472369,-106.4866603911915,1133.939,0,13.0078125,4,5,-9999,1467924480.637856,-16.97849082946777,62.10405349731445,-62.00799560546875,22.97324371337891,14.68403720855713,25,401855.1458435,-0.050811767578125,0.1378326416015625,-0.9952850341796875,401855.1122265,-0.00490767325679802,0.0519705234084603,-0.01058073901088481,401855.1122265,0.2164749237311153,-0.0515785489558265,-0.1381621998063435,0.002190061146393418,0.006309587508440018,0.0009035805705934763,-0.001517390250228345,-0.001187416375614703,-0.02245836891233921,XArbitraryCorrectedZVertical,-0.06582044581683716,-0.03302852860896511,0.1095022724798263,0.9912547793237243,-0.05106439813971519,0.1377230584621429,-0.9891535639762878,-13.74267101287842,58.50380706787109,-64.91559600830078,1,401818.546124625,automotive,2,2016-07-07 14:45:23.514,null,0,0,0,0,null,401854.4064665,0,-2.072388,88.59177,0.0.0.0,22.65.149.222,5,1,0.55,2
2016-07-07 14:55:25.542,20,359D9C92-F92A-4B76-879A-D4D13BE6E09A,my_iOS_device_1,1467924480.000135,31.74952792472369,-106.4866603911915,1133.939,0,13.0078125,4,5,-9999,1467924480.637856,-16.97849082946777,62.10405349731445,-62.00799560546875,22.97324371337891,14.68403720855713,25,401855.2046345,-0.0470428466796875,0.129974365234375,-1.01141357421875,401855.1821725,-0.008129299227466875,0.0498698219406058,-0.009542905134080935,401855.1471745,0.216503092680832,-0.05162866680672768,-0.1383195862845206,0.003220236860215664,0.002063221298158169,0.00196798169054091,0.000301084277452901,-4.630426337826066e-05,-0.006155683193355799,XArbitraryCorrectedZVertical,-0.06589527119555924,-0.03306263482844279,0.1095193105910237,0.9912467886555311,-0.05111285299062729,0.1378789395093918,-0.989129364490509,-13.73040866851807,58.48975372314453,-64.93084716796875,1,401818.546124625,automotive,2,2016-07-07 14:45:23.514,null,0,0,0,0,null,401854.4064665,0,-2.072388,88.59177,0.0.0.0,22.65.149.222,5,1,0.55,2
2016-07-07 14:55:25.551,21,359D9C92-F92A-4B76-879A-D4D13BE6E09A,my_iOS_device_1,1467924480.000135,31.74952792472369,-106.4866603911915,1133.939,0,13.0078125,4,5,-9999,1467924480.678279,-16.70003509521484,61.96577072143555,-62.00799560546875,22.96280479431152,14.67359733581543,25,401855.2634255,-0.0539093017578125,0.140167236328125,-0.9680633544921875,401855.2521135,-0.008139419239609176,0.04669346970846829,-0.01168515191494067,401855.2171455,0.2166032086323,-0.05159225003575366,-0.1381106016997531,-0.004280065651983023,-0.004246339201927185,-0.000237353247939609,-0.001717094448395073,-0.002494341926649213,0.01975383795797825,XArbitraryCorrectedZVertical,-0.0657919933644094,-0.03303680561692147,0.1095658370758208,0.9912493684384436,-0.05107831582427025,0.137671947479248,-0.9891599416732788,-13.73757934570312,58.50519943237305,-64.91542816162109,1,401818.546124625,automotive,2,2016-07-07 14:45:23.514,null,0,0,0,0,null,401854.4064665,0,-2.072388,88.59177,0.0.0.0,22.65.149.222,5,1,0.55,2
2016-07-07 14:55:25.557,22,359D9C92-F92A-4B76-879A-D4D13BE6E09A,my_iOS_device_1,1467924480.000135,31.74952792472369,-106.4866603911915,1133.939,0,13.0078125,4,5,-9999,1467924480.678279,-16.70003509521484,61.96577072143555,-62.00799560546875,22.96280479431152,14.67359733581543,25,401855.3222315,-0.053375244140625,0.1369476318359375,-0.995635986328125,401855.2870905,-0.002803775995635422,0.04771852041203979,-0.01057541268870466,401855.2870905,0.2166375547559262,-0.05143616086965141,-0.1380953961906576,0.004293272737413645,0.002058017300441861,0.0009095526183955371,2.070528717013076e-05,-0.002189364284276962,-0.0212212186306715,XArbitraryCorrectedZVertical,-0.06579243901027558,-0.03295976759315106,0.1095775876408865,0.9912506045274625,-0.05092402547597885,0.1376568973064423,-0.9891700148582458,-13.7215576171875,58.48952484130859,-64.93292999267578,1,401818.546124625,automotive,2,2016-07-07 14:45:23.514,null,0,0,0,0,null,401854.4064665,0,-2.072388,88.59177,0.0.0.0,22.65.149.222,5,1,0.55,2
2016-07-07 14:55:25.795,23,359D9C92-F92A-4B76-879A-D4D13BE6E09A,my_iOS_device_1,1467924480.000135,31.74952792472369,-106.4866603911915,1133.939,0,13.0078125,4,5,-9999,1467924480.767822,-16.90887451171875,61.2051887512207,-62.07415771484375,22.94928741455078,14.66007995605469,25,401855.3810315,-0.04656982421875,0.1307830810546875,-1.005859375,401855.3570255,-0.01028672602654006,0.04564578213563112,-0.01063666539377648,401855.3570255,0.216652457224533,-0.05134875620791825,-0.1380667490319226,-0.003189429873600602,-1.398909353156341e-05,0.000848152267280966,-0.001682982197962701,0.004964864812791348,0.02206109277904034,XArbitraryCorrectedZVertical,-0.06578277871549709,-0.03291541869930513,0.1095818404142458,0.9912522491715796,-0.05083777010440826,0.1376285254955292,-0.9891784191131592,-13.71851921081543,58.48085784912109,-64.94137573242188,1,401818.546124625,automotive,2,2016-07-07 14:45:23.514,null,0,0,0,0,null,401854.4064665,0,-2.072388,88.59177,0.0.0.0,22.65.149.222,5,1,0.55,2
2016-07-07 14:55:25.800,24,359D9C92-F92A-4B76-879A-D4D13BE6E09A,my_iOS_device_1,1467924480.000135,31.74952792472369,-106.4866603911915,1133.939,0,13.0078125,4,5,-9999,1467924480.824497,-17.29175186157227,61.65462875366211,-62.23944091796875,22.95290374755859,14.66369533538818,25,401855.4398225,-0.0550384521484375,0.1443939208984375,-0.959747314453125,401855.4269415,-0.007077350596885575,0.04774382044239554,-0.009540241972990854,401855.3919795,0.2166446601261172,-0.05129543794152762,-0.1380525266144429,-0.005361387971788645,-0.00530012184754014,0.0008199956500902772,-4.189764149487019e-05,-0.003169241594150662,0.02261507324874401,XArbitraryCorrectedZVertical,-0.06577877653533479,-0.03288798208387949,0.1095760943582385,0.991254060640929,-0.0507851280272007,0.1376144289970398,-0.9891830682754517,-13.71551513671875,58.49876403808594,-64.92588806152344,1,401818.546124625,automotive,2,2016-07-07 14:45:23.514,null,0,0,0,0,null,401854.4064665,0,-2.072388,88.59177,0.0.0.0,22.65.149.222,5,1,0.55,2
2016-07-07 14:55:25.806,25,359D9C92-F92A-4B76-879A-D4D13BE6E09A,my_iOS_device_1,1467924480.000135,31.74952792472369,-106.4866603911915,1133.939,0,13.0078125,4,5,-9999,1467924480.824497,-17.29175186157227,61.65462875366211,-62.23944091796875,22.95290374755859,14.66369533538818,25,401855.4986215,-0.057098388671875,0.141815185546875,-0.9952392578125,401855.4619325,-0.001738245243494719,0.0466535222921171,-0.01163721501531925,401855.4619325,0.2166761087323226,-0.05127990693874362,-0.1381141257435624,0.005357660818845034,0.0009931595996022224,-0.0001514222094556317,-0.002407548716291785,-0.002940337406471372,-0.01880495995283127,XArbitraryCorrectedZVertical,-0.0658096523132725,-0.03288458589464263,0.1095917237656018,0.9912503960932371,-0.05076933279633522,0.1376754492521286,-0.9891753792762756,-13.70220470428467,58.48772430419922,-64.93864440917969,1,401818.546124625,automotive,2,2016-07-07 14:45:23.514,null,0,0,0,0,null,401854.4064665,0,-2.072388,88.59177,0.0.0.0,22.65.149.222,5,1,0.55,2
2016-07-07 14:55:25.814,26,359D9C92-F92A-4B76-879A-D4D13BE6E09A,my_iOS_device_1,1467924480.000135,31.74952792472369,-106.4866603911915,1133.939,0,13.0078125,4,5,-9999,1467924480.9097,-17.32656097412109,61.55089950561523,-62.4046630859375,22.96654319763184,14.67733573913574,25,401855.5574165,-0.0457916259765625,0.1308135986328125,-1.013565063476562,401855.5318815,-0.01135012624980871,0.04353709118450638,-0.01385136714561113,401855.5318815,0.2166564257528968,-0.05127438022347993,-0.1380080931088787,-0.00425358721986413,-0.002122558420524001,-0.0023657635319978,-0.002320714993402362,0.002871473552659154,0.02529253624379635,XArbitraryCorrectedZVertical,-0.06575770587966814,-0.03287557583074983,0.1095808339011421,0.9912553462517826,-0.05076461285352707,0.1375704258680344,-0.9891902208328247,-13.70536804199219,58.49001693725586,-64.9359130859375,1,401818.546124625,automotive,2,2016-07-07 14:45:23.514,null,0,0,0,0,null,401854.4064665,0,-2.072388,88.59177,0.0.0.0,22.65.149.222,5,1,0.55,2
2016-07-07 14:55:25.937,27,359D9C92-F92A-4B76-879A-D4D13BE6E09A,my_iOS_device_1,1467924480.000135,31.74952792472369,-106.4866603911915,1133.939,0,13.0078125,4,5,-9999,1467924480.950311,-17.11772155761719,61.34345626831055,-62.008056640625,22.96892547607422,14.67971897125244,25,401855.6162045,-0.0552215576171875,0.1426849365234375,-0.962005615234375,401855.6018235,-0.004959871214163573,0.0445528208242626,-0.01059938113851537,401855.5668215,0.2166416590355654,-0.05129518168201462,-0.1378186299219316,-0.00320201413705945,-0.004250051453709602,-0.002361956518143415,0.004994898103177547,-0.006569158285856247,-0.02434986643493176,XArbitraryCorrectedZVertical,-0.0656628692070782,-0.03287535285959244,0.1095724950543684,0.9912625621445523,-0.05078652501106262,0.137382760643959,-0.9892151951789856,-13.71129417419434,58.48862838745117,-64.93590545654297,1,401818.546124625,automotive,2,2016-07-07 14:45:23.514,null,0,0,0,0,null,401854.4064665,0,-2.072388,88.59177,0.0.0.0,22.65.149.222,5,1,0.55,2
2016-07-07 14:55:25.941,28,359D9C92-F92A-4B76-879A-D4D13BE6E09A,my_iOS_device_1,1467924480.000135,31.74952792472369,-106.4866603911915,1133.939,0,13.0078125,4,5,-9999,1467924480.993146,-17.22214126586914,61.65461349487305,-62.107177734375,22.9696159362793,14.68040943145752,25,401855.6749945,-0.0541534423828125,0.14141845703125,-0.9954376220703125,401855.6717585,-0.006011819844744872,0.04667882232247286,-0.01060204429960545,401855.6367795,0.2165797548798231,-0.05146032492415328,-0.138132574397188,0.004280541092157364,-0.00111832027323544,-0.001231004483997822,0.0001358970766887069,0.003907844889909029,-0.02148696035146713,XArbitraryCorrectedZVertical,-0.06581050157213066,-0.03297181335547894,0.1095500711520098,0.9912520463118533,-0.05094766616821289,0.1376937180757523,-0.9891636967658997,-13.72392082214355,58.48914337158203,-64.93277740478516,1,401818.546124625,automotive,2,2016-07-07 14:45:23.514,null,0,0,0,0,null,401854.4064665,0,-2.072388,88.59177,0.0.0.0,22.65.149.222,5,1,0.55,2
2016-07-07 14:55:26.061,29,359D9C92-F92A-4B76-879A-D4D13BE6E09A,my_iOS_device_1,1467924480.000135,31.74952792472369,-106.4866603911915,1133.939,0,13.0078125,4,5,-9999,1467924481.034148,-17.36136436462402,61.79290390014648,-61.9749755859375,22.97442626953125,14.68521976470947,25,401855.7338145,-0.0472412109375,0.129974365234375,-1.01007080078125,401855.7067145,-0.009228652125451584,0.0435211122179659,-0.01170113088148115,401855.7067145,0.2165365581204324,-0.05164465436201792,-0.1382817838844222,-0.002136174589395523,-0.00214080885052681,-0.0002133166562998667,-0.006259371060878038,0.004706102889031172,0.02937116473913193,XArbitraryCorrectedZVertical,-0.06587509933653612,-0.03306965789969325,0.109536080646353,0.9912460421360608,-0.05112893506884575,0.1378415077924728,-0.9891337156295776,-13.73251914978027,58.50566101074219,-64.91607666015625,1,401818.546124625,automotive,2,2016-07-07 14:45:23.514,null,0,0,0,0,null,401855.7180205,0,-2.072388,88.59177,0.0.0.0,22.65.149.222,5,1,0.55,2
2016-07-07 14:55:26.067,30,359D9C92-F92A-4B76-879A-D4D13BE6E09A,my_iOS_device_1,1467924480.000135,31.74952792472369,-106.4866603911915,1133.939,0,13.0078125,4,5,-9999,1467924481.078551,-17.32655715942383,61.68918228149414,-61.5452880859375,22.97949600219727,14.69028759002686,25,401855.7926075,-0.055389404296875,0.1358184814453125,-0.9658203125,401855.7766705,-0.006026733546849316,0.0445594787269878,-0.01060737062178561,401855.7416995,0.2165777448779404,-0.05152661524867188,-0.138109456313851,-0.003209856804460287,-0.003193084616214037,-0.0002240076428279281,0.003772189607843757,-0.007696454413235188,-0.02090732753276825,XArbitraryCorrectedZVertical,-0.06579544129223079,-0.03300337695933758,0.1095510470450866,0.9912518878195068,-0.05101339891552925,0.1376708149909973,-0.9891634583473206,-13.73829174041748,58.51253890991211,-64.90864562988281,1,401818.546124625,automotive,2,2016-07-07 14:45:23.514,null,0,0,0,0,null,401855.7180205,0,-2.072388,88.59177,0.0.0.0,22.65.149.222,5,1,0.55,2
2016-07-07 14:55:26.215,31,359D9C92-F92A-4B76-879A-D4D13BE6E09A,my_iOS_device_1,1467924481.000135,31.74952792472369,-106.4866603911915,1133.885,0,13.0078125,4,5,-9999,1467924481.192253,-17.60501098632812,62.17319107055664,-62.4046630859375,22.98531341552734,14.69610691070557,25,401855.8513975,-0.05242919921875,0.1350860595703125,-0.9977264404296875,401855.8116465,-0.001751827365054123,0.04559251891382953,-0.01057274952761458,401855.8116465,0.2165960207531444,-0.05167394988237543,-0.1380940383760505,0.005341444630175829,-6.88862637616694e-05,0.0009147328091785312,-0.0009647758561186492,0.004205413162708282,0.004355820827186108,XArbitraryCorrectedZVertical,-0.06577942405317469,-0.03307618358456278,0.1095648116475184,0.991249002773434,-0.05115924775600433,0.1376555413007736,-0.9891580939292908,-13.74081039428711,58.49014282226562,-64.92829895019531,1,401818.546124625,automotive,2,2016-07-07 14:45:23.514,null,0,0,0,0,null,401855.7180205,0,-2.072388,88.59177,0.0.0.0,22.65.149.222,5,1,0.55,2
2016-07-07 14:55:26.323,32,359D9C92-F92A-4B76-879A-D4D13BE6E09A,my_iOS_device_1,1467924481.000135,31.74952792472369,-106.4866603911915,1133.885,0,13.0078125,4,5,-9999,1467924481.232296,-17.57020568847656,62.00033950805664,-62.50384521484375,22.99208450317383,14.70287609100342,25,401855.9102795,-0.0485076904296875,0.1348724365234375,-1.003280639648438,401855.8816495001,-0.0092124068428021,0.04669879603064845,-0.01062601274941616,401855.8816495001,0.2166204305794231,-0.05168726515506441,-0.1377003975902171,-0.00211910717189312,0.001036328263580799,0.000862856162711978,-0.0005063044955022633,0.002733745146542788,0.0154260229319334,XArbitraryCorrectedZVertical,-0.06558311598506097,-0.03306271575702049,0.1095737688058914,0.9912614694993971,-0.05117521435022354,0.1372656375169754,-0.9892114400863647,-13.74214649200439,58.47647476196289,-64.94033050537109,1,401818.546124625,automotive,2,2016-07-07 14:45:23.514,null,0,0,0,0,null,401855.7180205,0,-2.072388,88.59177,0.0.0.0,22.65.149.222,5,1,0.55,2
2016-07-07 14:55:26.327,33,359D9C92-F92A-4B76-879A-D4D13BE6E09A,my_iOS_device_1,1467924481.000135,31.74952792472369,-106.4866603911915,1133.885,0,13.0078125,4,5,-9999,1467924481.272971,-17.63982009887695,62.00033950805664,-62.7021484375,22.99939727783203,14.71019077301025,25,401855.9690795,-0.0537872314453125,0.1463470458984375,-0.9654693603515625,401855.9515955001,-0.002818689697739866,0.04559917681655473,-0.01058073901088481,401855.9166275,0.2166297393026138,-0.05156625512195514,-0.1376906991134857,-0.003173791570588946,0.001046247780323029,-0.001279413350857794,0.002547887386754155,-0.002383601386100054,-0.01406170148402452,XArbitraryCorrectedZVertical,-0.06558478328969536,-0.03300253043028098,0.1095743262583827,0.9912633031697654,-0.05105557665228844,0.1372560411691666,-0.9892189502716064,-13.73676681518555,58.47410202026367,-64.943603515625,1,401818.546124625,automotive,2,2016-07-07 14:45:23.514,null,0,0,0,0,null,401855.7180205,0,-2.072388,88.59177,0.0.0.0,22.65.149.222,5,1,0.55,2
2016-07-07 14:55:26.332,34,359D9C92-F92A-4B76-879A-D4D13BE6E09A,my_iOS_device_1,1467924481.000135,31.74952792472369,-106.4866603911915,1133.885,0,13.0078125,4,5,-9999,1467924481.272971,-17.63982009887695,62.00033950805664,-62.7021484375,22.99939727783203,14.71019077301025,25,401856.0278615,-0.053131103515625,0.1360321044921875,-0.9987945556640625,401855.9865635,-0.003863181477268943,0.04878485011250751,-0.01058073901088481,401855.9865635,0.2165821181280076,-0.0515408825231187,-0.1381417740139677,0.003227827604860067,0.003123576752841473,0.0009080516174435616,0.0001087047785404138,0.0104600116610527,0.007667213212698698,XArbitraryCorrectedZVertical,-0.06581061129606337,-0.03301230519228075,0.1095539763690993,0.9912502597267855,-0.05102728307247162,0.1377028226852417,-0.9891582727432251,-13.73326015472412,58.4848747253418,-64.93463897705078,1,401818.546124625,automotive,2,2016-07-07 14:45:23.514,null,0,0,0,0,null,401855.7180205,0,-2.072388,88.59177,0.0.0.0,22.65.149.222,5,1,0.55,2
2016-07-07 14:55:26.356,35,359D9C92-F92A-4B76-879A-D4D13BE6E09A,my_iOS_device_1,1467924481.000135,31.74952792472369,-106.4866603911915,1133.885,0,13.0078125,4,5,-9999,1467924481.353382,-16.94367980957031,62.41521072387695,-62.437744140625,22.99641799926758,14.70720958709717,25,401856.0866675,-0.046173095703125,0.1325225830078125,-1.002670288085938,401856.0565075,-0.01028672602654006,0.04564578213563112,-0.01063666539377648,401856.0565075,0.2166345657610015,-0.05136344043015383,-0.1379413191374196,-0.003196031088009477,-1.536674062663224e-05,0.000853193283546716,0.00233023171313107,-0.003211679169908166,0.01121332030743361,XArbitraryCorrectedZVertical,-0.06572007814033277,-0.03291545702617971,0.1095723260113527,0.9912574586808505,-0.050853181630373,0.1375042796134949,-0.9891948699951172,-13.72441959381104,58.49356460571289,-64.92868804931641,1,401818.546124625,automotive,2,2016-07-07 14:45:23.514,null,0,0,0,0,null,401855.7180205,0,-2.072388,88.59177,0.0.0.0,22.65.149.222,5,1,0.55,2
2016-07-07 14:55:26.577,36,359D9C92-F92A-4B76-879A-D4D13BE6E09A,my_iOS_device_1,1467924481.000135,31.74952792472369,-106.4866603911915,1133.885,0,13.0078125,4,5,-9999,1467924481.436226,-16.66522789001465,61.51633071899414,-62.37158203125,22.9744873046875,14.68527984619141,25,401856.1454575,-0.0511474609375,0.1388397216796875,-0.9719696044921875,401856.0914585,-0.01031522185020391,0.04246543516185849,-0.009577526228251964,401856.0914585,0.2166648142148669,-0.05130927219103032,-0.1378989531389405,-0.00322459964081645,-0.003195099765434861,0.001912276493385434,0.004626800771802664,-0.004939734935760498,-0.01346683036535978,XArbitraryCorrectedZVertical,-0.06570154246163744,-0.03288735678377033,0.1095851568547468,0.9912582017209386,-0.0507998950779438,0.137462317943573,-0.9892034530639648,-13.71957015991211,58.49328994750977,-64.92995452880859,1,401818.546124625,automotive,2,2016-07-07 14:45:23.514,null,0,0,0,0,null,401855.7180205,0,-2.072388,88.59177,0.0.0.0,22.65.149.222,5,1,0.55,2
2016-07-07 14:55:26.582,37,359D9C92-F92A-4B76-879A-D4D13BE6E09A,my_iOS_device_1,1467924481.000135,31.74952792472369,-106.4866603911915,1133.885,0,13.0078125,4,5,-9999,1467924481.436226,-16.66522789001465,61.51633071899414,-62.37158203125,22.9744873046875,14.68527984619141,25,401856.2042595,-0.05322265625,0.1373291015625,-1.008255004882812,401856.1614165001,-0.003864513057813983,0.04772650989531003,-0.01165053082076964,401856.1614165001,0.2166726899685881,-0.0514657154269627,-0.1379011553793577,0.003225748660042882,0.002065893262624741,-0.0001609577157068998,-0.002039139857515693,0.002260232111439109,-0.00293126842007041,XArbitraryCorrectedZVertical,-0.06569393243335328,-0.03296526998942945,0.1095942191411599,0.9912551161768476,-0.05095463618636131,0.1374644935131073,-0.9891951680183411,-13.71852779388428,58.47666931152344,-64.94515228271484,1,401818.546124625,automotive,2,2016-07-07 14:45:23.514,null,0,0,0,0,null,401855.7180205,0,-2.072388,88.59177,0.0.0.0,22.65.149.222,5,1,0.55,2
2016-07-07 14:55:26.590,38,359D9C92-F92A-4B76-879A-D4D13BE6E09A,my_iOS_device_1,1467924481.000135,31.74952792472369,-106.4866603911915,1133.885,0,13.0078125,4,5,-9999,1467924481.474627,-16.87406921386719,61.30888748168945,-62.17333984375,22.96908187866211,14.67987537384033,25,401856.2630595,-0.0462799072265625,0.1357879638671875,-0.9860076904296875,401856.2313615,-0.009219863693854323,0.04563912423290592,-0.01062867591050624,401856.2313615,0.2166664929854853,-0.05135657564522399,-0.1376966028903314,-0.002130238339304924,-2.232524457213003e-05,0.000861948006786406,2.108977605530526e-05,-0.002053756034001708,0.01645049266517162,XArbitraryCorrectedZVertical,-0.06559859331945841,-0.03290012502860949,0.1095857193177827,0.9912645340418397,-0.05084811523556709,0.1372618824243546,-0.9892287850379944,-13.71449375152588,58.46480941772461,-64.95668029785156,1,401818.546124625,automotive,2,2016-07-07 14:45:23.514,null,0,0,0,0,null,401855.7180205,0,-2.072388,88.59177,0.0.0.0,22.65.149.222,5,1,0.55,2
2016-07-07 14:55:26.611,39,359D9C92-F92A-4B76-879A-D4D13BE6E09A,my_iOS_device_1,1467924481.000135,31.74952792472369,-106.4866603911915,1133.885,0,13.0078125,4,5,-9999,1467924481.555602,-17.04810333251953,61.75833511352539,-62.60296630859375,22.96137619018555,14.67216873168945,25,401856.3218425,-0.0521697998046875,0.1408233642578125,-0.9728546142578125,401856.3012775001,-0.004938832241551947,0.0466734960002927,-0.01166118346512996,401856.3012775001,0.216637150119801,-0.05154999557481916,-0.1380038732729242,0.002149204723536968,0.001012139488011599,-0.0001707182091195136,-0.001407181844115257,0.001014080946333706,-0.02022262290120125,XArbitraryCorrectedZVertical,-0.06574083006664701,-0.03301132074569344,0.1095803030705479,0.9912520129329934,-0.05103727430105209,0.1375662386417389,-0.9891768097877502,-13.72673797607422,58.47910308837891,-64.94122314453125,1,401818.546124625,automotive,2,2016-07-07 14:45:23.514,null,0,0,0,0,null,401855.7180205,0,-2.072388,88.59177,0.0.0.0,22.65.149.222,5,1,0.55,2
2016-07-07 14:55:26.840,40,359D9C92-F92A-4B76-879A-D4D13BE6E09A,my_iOS_device_1,1467924481.000135,31.74952792472369,-106.4866603911915,1133.885,0,13.0078125,4,5,-9999,1467924481.636163,-17.08291244506836,62.9683723449707,-62.76812744140625,22.35844039916992,14.06923198699951,25,401856.3806605,-0.0568084716796875,0.1370086669921875,-1.0081787109375,401856.3712255,-0.008130630808011914,0.04881148172340831,-0.01061269694396576,401856.3362735,0.2166276025732405,-0.05156681148157188,-0.1381063659708121,0.005362926982343197,0.003110779915004969,-0.0001404155918862671,-0.002169473329558969,0.004208461847156286,-0.002720476593822241,XArbitraryCorrectedZVertical,-0.06579088401271714,-0.03302477553755811,0.109577052118093,0.9912486032426975,-0.05105318129062653,0.1376677602529526,-0.9891618490219116,-13.72877407073975,58.48451232910156,-64.93592071533203,1,401818.546124625,automotive,2,2016-07-07 14:45:23.514,null,0,0,0,0,null,401855.7180205,0,-2.072388,88.59177,0.0.0.0,22.65.149.222,5,1,0.55,2
2016-07-07 14:55:26.846,41,359D9C92-F92A-4B76-879A-D4D13BE6E09A,my_iOS_device_1,1467924481.000135,31.74952792472369,-106.4866603911915,1133.885,0,13.0078125,4,5,-9999,1467924481.676886,-17.36136627197266,61.86205673217773,-62.70208740234375,22.76069259643555,14.47148609161377,25,401856.4394505,-0.0479736328125,0.1371612548828125,-0.9854583740234375,401856.4062095,-0.009219863693854323,0.04563912423290592,-0.01062867591050624,401856.4062095,0.2166874350898273,-0.05142569285651865,-0.1379764203659959,-0.0021330660674721,-2.245336145278998e-05,0.0008626013295724988,0.0006062849424779415,-0.004665514454245567,0.01845325715839863,XArbitraryCorrectedZVertical,-0.06573320041273789,-0.03294991001131432,0.1096008918214893,0.9912522859018537,-0.05091451108455658,0.1375390440225601,-0.9891868829727173,-13.71932411193848,58.48678588867188,-64.93586730957031,1,401818.546124625,automotive,2,2016-07-07 14:45:23.514,null,0,0,0,0,null,401855.7180205,0,-2.072388,88.59177,0.0.0.0,22.65.149.222,5,1,0.55,2
2016-07-07 14:55:26.856,42,359D9C92-F92A-4B76-879A-D4D13BE6E09A,my_iOS_device_1,1467924481.000135,31.74952792472369,-106.4866603911915,1133.885,0,13.0078125,4,5,-9999,1467924481.75913,-17.22214126586914,61.5163459777832,-62.17333984375,22.88793754577637,14.59873008728027,25,401856.4982535,-0.051971435546875,0.1403045654296875,-0.9720916748046875,401856.4761445,-0.004940163822096987,0.04561515578309521,-0.01273097527501479,401856.4411745,0.2167203456604858,-0.05134040522046102,-0.137900142673887,-0.001082283561117947,-0.003206057008355856,-0.0002045783185167238,0.002857052255421877,-0.0003022413293365389,0.003743338864296675,XArbitraryCorrectedZVertical,-0.06569951279322722,-0.03290467450941888,0.1096137132399333,0.9912546041678123,-0.05083068460226059,0.1374634951353073,-0.9892017245292664,-13.71901035308838,58.4903564453125,-64.93271636962891,1,401818.546124625,automotive,2,2016-07-07 14:45:23.514,null,0,0,0,0,null,401855.7180205,0,-2.072388,88.59177,0.0.0.0,22.65.149.222,5,1,0.55,2
2016-07-07 14:55:26.863,43,359D9C92-F92A-4B76-879A-D4D13BE6E09A,my_iOS_device_1,1467924481.000135,31.74952792472369,-106.4866603911915,1133.885,0,13.0078125,4,5,-9999,1467924481.838349,-17.2569465637207,62.10407638549805,-61.74365234375,22.87087440490723,14.58166694641113,25,401856.5570385,-0.054046630859375,0.13690185546875,-1.00872802734375,401856.5460975,-0.007080013757975655,0.04562714000800056,-0.01167982559276052,401856.5111055,0.2166664651209081,-0.05137259898491964,-0.1381375006986233,0.003232355462387204,0.002068357542157173,-0.00229280348867178,0.0002627098001539707,0.003704601200297475,-0.003874529153108597,XArbitraryCorrectedZVertical,-0.06581632156544127,-0.03293144872152711,0.1095902045823629,0.9912485654770261,-0.05086085572838783,0.1376985907554626,-0.9891674518585205,-13.71675872802734,58.49081039428711,-64.93278503417969,1,401818.546124625,automotive,2,2016-07-07 14:45:23.514,null,0,0,0,0,null,401855.7180205,0,-2.072388,88.59177,0.0.0.0,22.65.149.222,5,1,0.55,2
2016-07-07 14:55:26.992,44,359D9C92-F92A-4B76-879A-D4D13BE6E09A,my_iOS_device_1,1467924481.000135,31.74952792472369,-106.4866603911915,1133.885,0,13.0078125,4,5,-9999,1467924481.88674,-17.25694274902344,62.0349235534668,-61.8758544921875,22.86812973022461,14.57892227172852,25,401856.6158355,-0.048614501953125,0.135955810546875,-0.981292724609375,401856.5810655,-0.01026835021501852,0.04564977687726623,-0.01383805134016073,401856.5810655,0.2165901802496497,-0.05148984565683774,-0.1381862453846736,-0.003184161148965359,-1.074634838005295e-05,-0.00234626024030149,-0.001498490571975708,0.0007113746833056211,0.02560803480446339,XArbitraryCorrectedZVertical,-0.06583532360831042,-0.03298963283108446,0.1095566945860602,0.991249073120579,-0.05097648501396179,0.1377468705177307,-0.9891548156738281,-13.72365188598633,58.49347305297852,-64.92893218994141,1,401818.546124625,automotive,2,2016-07-07 14:45:23.514,null,0,0,0,0,null,401855.7180205,0,-2.072388,88.59177,0.0.0.0,22.65.149.222,5,1,0.55,2
2016-07-07 14:55:27.004,45,359D9C92-F92A-4B76-879A-D4D13BE6E09A,my_iOS_device_1,1467924481.000135,31.74952792472369,-106.4866603911915,1133.885,0,13.0078125,4,5,-9999,1467924482.06014,-16.56081008911133,61.68923568725586,-62.2724609375,22.833740234375,14.54453182220459,25,401856.6746465,-0.0514984130859375,0.1425628662109375,-0.9757537841796875,401856.6510085,-0.002811232846687644,0.04665884861429726,-0.01057807584979473,401856.6160325001,0.2166022211352608,-0.05146708259826254,-0.1381738703139223,-0.001076381653547287,-0.001087378826923668,0.0008683680207468569,0.002339554484933615,-0.001778809586539865,0.007864926010370255,XArbitraryCorrectedZVertical,-0.06583023621695734,-0.03297809119874113,0.1095618012876028,0.9912492306171511,-0.05095405504107475,0.1377346217632294,-0.9891576766967773,-13.72792625427246,58.50947189331055,-64.91361236572266,1,401818.546124625,automotive,2,2016-07-07 14:45:23.514,null,0,0,0,0,null,401855.7180205,0,-2.072388,88.59177,0.0.0.0,22.65.149.222,5,1,0.55,2
2016-07-07 14:55:27.260,46,359D9C92-F92A-4B76-879A-D4D13BE6E09A,my_iOS_device_1,1467924482.000134,31.74952792472369,-106.4866603911915,1133.855,0,13.0078125,4,5,-9999,1467924482.174543,-17.01329612731934,61.58550643920898,-61.908935546875,22.82374572753906,14.53453922271729,25,401856.7334465,-0.0524749755859375,0.138092041015625,-1.017425537109375,401856.7209435,-0.009207613152839958,0.045641787393996,-0.01276293320809574,401856.6859765,0.2166227587316748,-0.05157646607982717,-0.138338537531633,0.003210376249626279,0.001005848054774106,-0.0001610780891496688,-0.002008984563872218,0.0009114880231209099,-0.01213707122951746,XArbitraryCorrectedZVertical,-0.06590554913444494,-0.03304171047787938,0.1095770713669385,0.991240419571659,-0.05106108263134956,0.137897714972496,-0.9891294240951538,-13.73103618621826,58.51150131225586,-64.91112518310547,1,401818.546124625,automotive,2,2016-07-07 14:45:23.514,null,0,0,0,0,null,401855.7180205,0,-2.072388,88.59177,0.0.0.0,22.65.149.222,5,1,0.55,2
2016-07-07 14:55:27.390,47,359D9C92-F92A-4B76-879A-D4D13BE6E09A,my_iOS_device_1,1467924482.000134,31.74952792472369,-106.4866603911915,1133.855,0,13.0078125,4,5,-9999,1467924482.302598,-16.83926010131836,61.27436447143555,-62.66900634765625,22.81960678100586,14.53040027618408,25,401856.7922445,-0.051605224609375,0.1359405517578125,-0.976348876953125,401856.7559185,-0.01029551445813733,0.0435277701206911,-0.01170912036475139,401856.7559185,0.2166018743593804,-0.05157445130352564,-0.1381963071952266,-0.003212489886209369,-0.002132242312654853,-0.0002171573432860896,-0.0005756407044827938,0.003081779927015305,0.02059745229780674,XArbitraryCorrectedZVertical,-0.06583548465851498,-0.03303248375702863,0.1095653665058157,0.9912466768867561,-0.05106010288000107,0.1377568393945694,-0.9891490936279297,-13.73287391662598,58.49901580810547,-64.92198944091797,1,401818.546124625,automotive,2,2016-07-07 14:45:23.514,null,0,0,0,0,null,401855.7180205,0,-2.072388,88.59177,0.0.0.0,22.65.149.222,5,1,0.55,2
2016-07-07 14:55:27.395,48,359D9C92-F92A-4B76-879A-D4D13BE6E09A,my_iOS_device_1,1467924482.000134,31.74952792472369,-106.4866603911915,1133.855,0,13.0078125,4,5,-9999,1467924482.302598,-16.83926010131836,61.27436447143555,-62.66900634765625,22.81960678100586,14.53040027618408,25,401856.8510435,-0.0530548095703125,0.14227294921875,-0.978668212890625,401856.8258555,-0.005998237723185468,0.04773982570076042,-0.01166650978731012,401856.8258555,0.2166116153844343,-0.05164314434794771,-0.1382473681919765,0.001083264593034983,0.002079264959320426,-0.0001743328903103247,-0.001789794652722776,-0.002950239460915327,-0.02929406426846981,XArbitraryCorrectedZVertical,-0.06585687717517917,-0.03306955718771441,0.1095729187614075,0.9912431848896712,-0.05112768709659576,0.1378074139356613,-0.9891385436058044,-13.73258018493652,58.49721527099609,-64.92367553710938,1,401818.546124625,automotive,2,2016-07-07 14:45:23.514,null,0,0,0,0,null,401855.7180205,0,-2.072388,88.59177,0.0.0.0,22.65.149.222,5,1,0.55,2
2016-07-07 14:55:27.401,49,359D9C92-F92A-4B76-879A-D4D13BE6E09A,my_iOS_device_1,1467924482.000134,31.74952792472369,-106.4866603911915,1133.855,0,13.0078125,4,5,-9999,1467924482.342928,-16.66522598266602,61.37807846069336,-62.23944091796875,22.81145286560059,14.52224540710449,25,401856.9098425,-0.053466796875,0.1338348388671875,-1.013671875,401856.8957965,-0.008145544510116358,0.04669213812792325,-0.01061802326614592,401856.8608315,0.2165956756819273,-0.05184369488399056,-0.1384219879750971,0.003217493649572134,0.003123721340671182,0.0009112913394346833,-0.001730000250972807,0.004292580299079418,0.01043601892888546,XArbitraryCorrectedZVertical,-0.06593273239801037,-0.03317768520372007,0.1095732143392943,0.9912344963238423,-0.05132481083273888,0.1379803717136383,-0.9891042113304138,-13.75087928771973,58.51551055908203,-64.90330505371094,1,401818.546124625,automotive,2,2016-07-07 14:45:23.514,null,0,0,0,0,null,401855.7180205,0,-2.072388,88.59177,0.0.0.0,22.65.149.222,5,1,0.55,2
2016-07-07 14:55:27.408,50,359D9C92-F92A-4B76-879A-D4D13BE6E09A,my_iOS_device_1,1467924482.000134,31.74952792472369,-106.4866603911915,1133.855,0,13.0078125,4,5,-9999,1467924482.383269,-16.8044548034668,61.5163688659668,-61.97509765625,22.80580520629883,14.51659679412842,25,401856.9686455,-0.0495147705078125,0.1349029541015625,-0.970062255859375,401856.9307525,-0.01030430288973459,0.04140975810575108,-0.0127815753357263,401856.9307525,0.2166206837448786,-0.05191853706603271,-0.138325420990827,-0.00322328507900238,-0.004251230042427778,-0.001289819017983973,-0.001640023663640022,-0.001974690705537796,0.02439201064407825,XArbitraryCorrectedZVertical,-0.06588033772722535,-0.03321048361915951,0.1095871937050102,0.9912353362620605,-0.05139952898025513,0.137884721159935,-0.9891136884689331,-13.75235748291016,58.508544921875,-64.90927886962891,1,401818.546124625,automotive,2,2016-07-07 14:45:23.514,null,0,0,0,0,null,401855.7180205,0,-2.072388,88.59177,0.0.0.0,22.65.149.222,5,1,0.55,2
2016-07-07 14:55:27.448,51,359D9C92-F92A-4B76-879A-D4D13BE6E09A,my_iOS_device_1,1467924482.000134,31.74952792472369,-106.4866603911915,1133.855,0,13.0078125,4,5,-9999,1467924482.471645,-16.70003509521484,61.8275260925293,-62.33856201171875,22.7873649597168,14.49815654754639,25,401857.0274465,-0.0522613525390625,0.1431121826171875,-0.9768524169921875,401857.0007085,-0.003879426759918426,0.04560716629982497,-0.0116558571429498,401857.0007085,0.2165784455896513,-0.05181055040681846,-0.1382347956045476,0.003200871637091041,-5.387052806327119e-05,-0.0001639920810703188,0.0002832308236975223,-0.003380291629582644,-0.03467200323939323,XArbitraryCorrectedZVertical,-0.06584202150936228,-0.03315076866888376,0.109561876580371,0.9912426796402491,-0.05129336193203926,0.1377949714660645,-0.9891316890716553,-13.74453639984131,58.50271987915039,-64.91618347167969,1,401818.546124625,automotive,2,2016-07-07 14:45:23.514,null,0,0,0,0,null,401855.7180205,0,-2.072388,88.59177,0.0.0.0,22.65.149.222,5,1,0.54,2
2016-07-07 14:55:27.557,52,359D9C92-F92A-4B76-879A-D4D13BE6E09A,my_iOS_device_1,1467924482.000134,31.74952792472369,-106.4866603911915,1133.855,0,13.0078125,4,5,-9999,1467924482.546577,-17.74423789978027,62.10409927368164,-62.20635986328125,22.79412078857422,14.50491333007812,25,401857.0862405,-0.0511627197265625,0.1381988525390625,-1.021194458007812,401857.0706395,-0.008159126631675761,0.04563113474963568,-0.009553557778441251,401857.0356785,0.2165514121154765,-0.05183735994887831,-0.1383913417671799,0.003201556392014027,0.001004661316983402,0.0009057509014382958,-0.0009425900643691421,0.005162166897207499,0.01225636247545481,XArbitraryCorrectedZVertical,-0.06591861889182349,-0.0331714622126646,0.1095507883056128,0.9912381220270226,-0.05131876096129417,0.1379500180482864,-0.9891088008880615,-13.75081634521484,58.51166534423828,-64.90678405761719,1,401818.546124625,automotive,2,2016-07-07 14:45:23.514,null,0,0,0,0,null,401857.0298275001,0,-2.039795,88.59142,0.0.0.0,22.65.149.222,5,1,0.54,2
2016-07-07 14:55:27.562,53,359D9C92-F92A-4B76-879A-D4D13BE6E09A,my_iOS_device_1,1467924482.000134,31.74952792472369,-106.4866603911915,1133.855,0,13.0078125,4,5,-9999,1467924482.546577,-17.74423789978027,62.10409927368164,-62.20635986328125,22.79412078857422,14.50491333007812,25,401857.1450495,-0.0532989501953125,0.1366119384765625,-0.97454833984375,401857.1056215,-0.009229983705996623,0.04246277200076842,-0.01277092269136598,401857.1056215,0.2165717372314578,-0.05182805780515781,-0.1384969863165249,-0.002150982152670622,-0.003197030862793326,-0.001279181218706071,0.004784758668392897,-0.003853599540889263,0.004536591935902834,XArbitraryCorrectedZVertical,-0.06597117112041777,-0.03317312083483604,0.109561517910092,0.991233384439954,-0.05130880698561668,0.1380546540021896,-0.9890946745872498,-13.75164031982422,58.52089691162109,-64.89829254150391,1,401818.546124625,automotive,2,2016-07-07 14:45:23.514,null,0,0,0,0,null,401857.0298275001,0,-2.039795,88.59142,0.0.0.0,22.65.149.222,5,1,0.54,2
2016-07-07 14:55:27.687,54,359D9C92-F92A-4B76-879A-D4D13BE6E09A,my_iOS_device_1,1467924482.000134,31.74952792472369,-106.4866603911915,1133.855,0,13.0078125,4,5,-9999,1467924482.625215,-17.43097686767578,61.17062759399414,-62.23944091796875,22.81991195678711,14.53070449829102,25,401857.2038545,-0.054351806640625,0.14111328125,-0.9790802001953125,401857.1755585001,-0.003857056206761761,0.04878618169305256,-0.01164786765967956,401857.1755585001,0.2165899260704872,-0.05168687540971493,-0.1386455730366072,0.003219661070033908,0.003125867340713739,-0.0001560808159410954,0.001027721911668777,-0.004794219043105841,-0.02794737368822098,XArbitraryCorrectedZVertical,-0.06605227466918592,-0.03311162424930966,0.1095672235939773,0.991229408797216,-0.05116810277104378,0.1382018178701401,-0.9890814423561096,-13.74350547790527,58.53794860839844,-64.88463592529297,1,401818.546124625,automotive,2,2016-07-07 14:45:23.514,null,0,0,0,0,null,401857.0298275001,0,-2.039795,88.59142,0.0.0.0,22.65.149.222,5,1,0.54,2
2016-07-07 14:55:27.695,55,359D9C92-F92A-4B76-879A-D4D13BE6E09A,my_iOS_device_1,1467924482.000134,31.74952792472369,-106.4866603911915,1133.855,0,13.0078125,4,5,-9999,1467924482.625215,-17.43097686767578,61.17062759399414,-62.23944091796875,22.81991195678711,14.53070449829102,25,401857.2626315,-0.0478973388671875,0.1295318603515625,-1.020095825195312,401857.2454755,-0.008146876090661398,0.04563379791072576,-0.01168781507603075,401857.2454755,0.2165471332048808,-0.05192657789620141,-0.1386149625066209,-0.001070018974132836,-2.684358514670748e-05,-0.0001963381073437631,-0.0008864640258252621,0.00298756267875433,0.01618823409080505,XArbitraryCorrectedZVertical,-0.06602467646456385,-0.03322738904434212,0.1095536509969615,0.9912288738067782,-0.0514054074883461,0.1381714940071106,-0.9890733361244202,-13.75104427337646,58.52485656738281,-64.89485168457031,1,401818.546124625,automotive,2,2016-07-07 14:45:23.514,null,0,0,0,0,null,401857.0298275001,0,-2.039795,88.59142,0.0.0.0,22.65.149.222,5,1,0.54,2
2016-07-07 14:55:27.820,56,359D9C92-F92A-4B76-879A-D4D13BE6E09A,my_iOS_device_1,1467924482.000134,31.74952792472369,-106.4866603911915,1133.855,0,13.0078125,4,5,-9999,1467924482.7062,-17.36136436462402,61.58550643920898,-61.578369140625,22.8333625793457,14.54415416717529,25,401857.3214365,-0.0540313720703125,0.1382598876953125,-0.9678802490234375,401857.3154455,-0.008139419239609176,0.04669346970846829,-0.01168515191494067,401857.2804765,0.2165772306942969,-0.05185094347582254,-0.1383185962708201,-0.004276623949408531,-0.001065912307240069,-0.0002230672689620405,0.003954178187996149,-0.006072545424103737,0.006070616189390421,XArbitraryCorrectedZVertical,-0.06588137840502786,-0.03317518986795706,0.1095633686970906,0.9912390826618953,-0.05133271962404251,0.1378779709339142,-0.9891180992126465,-13.76038074493408,58.52479934692383,-64.89292144775391,1,401818.546124625,automotive,2,2016-07-07 14:45:23.514,null,0,0,0,0,null,401857.0298275001,0,-2.039795,88.59142,0.0.0.0,22.65.149.222,5,1,0.54,2
2016-07-07 14:55:27.829,57,359D9C92-F92A-4B76-879A-D4D13BE6E09A,my_iOS_device_1,1467924482.000134,31.74952792472369,-106.4866603911915,1133.855,0,13.0078125,4,5,-9999,1467924482.747609,-16.80445861816406,62.13866806030273,-61.8427734375,22.8298454284668,14.54063892364502,25,401857.3802315,-0.0529327392578125,0.146270751953125,-0.9820098876953125,401857.3504135,-0.004923918539447503,0.04879283959577776,-0.0116558571429498,401857.3504135,0.2165666669121475,-0.05183776786083142,-0.1385009202295698,0.002152313478291035,0.003131761681288481,-0.0001644021976971999,-0.0002258070453535765,-0.0008362556109204888,-0.0137749956920743,XArbitraryCorrectedZVertical,-0.06597267378201377,-0.03317797453926438,0.1095593611175918,0.9912333603703019,-0.05131838098168373,0.1380585432052612,-0.9890936613082886,-13.75304412841797,58.52441787719727,-64.89481353759766,1,401818.546124625,automotive,2,2016-07-07 14:45:23.514,null,0,0,0,0,null,401857.0298275001,0,-2.039795,88.59142,0.0.0.0,22.65.149.222,5,1,0.54,2
2016-07-07 14:55:27.949,58,359D9C92-F92A-4B76-879A-D4D13BE6E09A,my_iOS_device_1,1467924482.000134,31.74952792472369,-106.4866603911915,1133.855,0,13.0078125,4,5,-9999,1467924482.827152,-17.2569465637207,61.75839614868164,-62.47076416015625,22.81444549560547,14.52523708343506,25,401857.4390355001,-0.0465087890625,0.1314544677734375,-1.023757934570312,401857.4203565,-0.008138087659064135,0.04775180992566578,-0.01061536010505584,401857.3853885,0.2165417001536114,-0.0518699875462026,-0.1386132485849565,0.002145840087905526,0.003130410797894001,0.0009026143816299736,-0.001583292963914573,0.008100954815745354,0.007066621910780668,XArbitraryCorrectedZVertical,-0.06602701668647394,-0.03319907185095641,0.1095490744428401,0.9912301725555007,-0.0513494461774826,0.1381697952747345,-0.9890764951705933,-13.74765872955322,58.50891876220703,-64.90993499755859,1,401818.546124625,automotive,2,2016-07-07 14:45:23.514,null,0,0,0,0,null,401857.0298275001,0,-2.039795,88.59142,0.0.0.0,22.65.149.222,5,1,0.54,2
