loggingTime,loggingSample,identifierForVendor,deviceID,locationTimestamp_since1970,locationLatitude,locationLongitude,locationAltitude,locationSpeed,locationCourse,locationVerticalAccuracy,locationHorizontalAccuracy,locationHeadingTimestamp_since1970,locationHeadingX,locationHeadingY,locationHeadingZ,locationTrueHeading,locationMagneticHeading,locationHeadingAccuracy,accelerometerTimestamp_sinceReboot,accelerometerAccelerationX,accelerometerAccelerationY,accelerometerAccelerationZ,gyroTimestamp_sinceReboot,gyroRotationX,gyroRotationY,gyroRotationZ,motionTimestamp_sinceReboot,motionYaw,motionRoll,motionPitch,motionRotationRateX,motionRotationRateY,motionRotationRateZ,motionUserAccelerationX,motionUserAccelerationY,motionUserAccelerationZ,motionAttitudeReferenceFrame,motionQuaternionX,motionQuaternionY,motionQuaternionZ,motionQuaternionW,motionGravityX,motionGravityY,motionGravityZ,motionMagneticFieldX,motionMagneticFieldY,motionMagneticFieldZ,motionMagneticFieldCalibrationAccuracy,activityTimestamp_sinceReboot,activity,activityActivityConfidence,activityActivityStartDate,pedometerStartDate,pedometerNumberofSteps,pedometerDistance,pedometerFloorAscended,pedometerFloorDescended,pedometerEndDate,altimeterTimestamp_sinceReboot,altimeterReset,altimeterRelativeAltitude,altimeterPressure,IP_en0,IP_pdp_ip0,deviceOrientation,batteryState,batteryLevel,state
2017-05-14 22:05:01.570,1,0211D7EC-4A0C-4BE7-80DD-93957CA4B509,my_iOS_device_1,1494821100.966125,31.74850533253676,-106.4869283606359,1143.484,2.03,101.6015625,8,10,1494821101.54519,37.91619873046875,22.52005004882812,-91.02410888671875,345.0775146484375,336.8712463378906,25,96.60117016666668,0.12603759765625,-0.51983642578125,-0.8038482666015625,96.56305416666667,0.007559116438080909,-0.4906200528715206,-0.06091235308451035,96.57803616666668,0.1125415465925634,0.1215863625286288,0.5579253385159307,0.1809186041355133,-0.7173044681549072,-0.06184912472963333,0.004420583136379719,0.01145243458449841,0.06020144745707512,XArbitraryCorrectedZVertical,0.2711299861993576,0.0737724308319026,0.07067014630535549,0.9571059969793683,0.1028944775462151,-0.5294272899627686,-0.8420923352241516,45.57487106323242,16.37797546386719,-87.15605926513672,1,81.55534187500001,unknown,2,2017-05-14 22:04:46.477,null,0,0,0,0,null,94.842754,0,0.07434082,88.03104,0.0.0.0,0.0.0.0,1,1,0.75,0
2017-05-14 22:05:01.619,2,0211D7EC-4A0C-4BE7-80DD-93957CA4B509,my_iOS_device_1,1494821100.966125,31.74850533253676,-106.4869283606359,1143.484,2.03,101.6015625,8,10,1494821101.604104,35.13168334960938,21.96157836914062,-92.54925537109375,345.7783508300781,337.5720825195312,25,96.65998816666668,0.042999267578125,-0.562164306640625,-0.8336181640625,96.63299116666667,0.394675413543672,-0.5819467708691719,-0.1404047821461765,96.65795516666667,0.0968715255498917,0.07214519513386713,0.585928882316178,0.3883916139602661,-0.6317240595817566,-0.0408741757273674,0.01272526662796736,0.006449516396969557,0.007987544871866703,XArbitraryCorrectedZVertical,0.2865935383002575,0.04846090989784044,0.05672671598082988,0.9551427975493744,0.06005915626883507,-0.5529735684394836,-0.8310313820838928,39.95098876953125,14.43399810791016,-90.20567321777344,1,81.55534187500001,unknown,2,2017-05-14 22:04:46.477,null,0,0,0,0,null,94.842754,0,0.07434082,88.03104,0.0.0.0,0.0.0.0,1,1,0.75,0
2017-05-14 22:05:01.655,3,0211D7EC-4A0C-4BE7-80DD-93957CA4B509,my_iOS_device_1,1494821100.966125,31.74850533253676,-106.4869283606359,1143.484,2.03,101.6015625,8,10,1494821101.604104,35.13168334960938,21.96157836914062,-92.54925537109375,345.7783508300781,337.5720825195312,25,96.71883016666668,0.0491180419921875,-0.54571533203125,-0.839599609375,96.70493316666668,0.0001241033067976925,-0.1652675214509383,-0.03882409500339315,96.68994916666668,0.09678151705753656,0.06146026176382387,0.5928423591868068,0.1147496178746223,-0.19244284927845,0.0285868588835001,-0.04151041805744171,-0.01648996770381927,0.00448682764545083,XArbitraryCorrectedZVertical,0.2901982404206379,0.04347362581268121,0.0552047702730854,0.9543832869736161,0.05094034969806671,-0.558720588684082,-0.8277900218963623,38.58290100097656,13.58229446411133,-90.93055725097656,1,81.55534187500001,unknown,2,2017-05-14 22:04:46.477,null,0,0,0,0,null,94.842754,0,0.07434082,88.03104,0.0.0.0,0.0.0.0,1,1,0.75,0
2017-05-14 22:05:01.714,4,0211D7EC-4A0C-4BE7-80DD-93957CA4B509,my_iOS_device_1,1494821100.966125,31.74850533253676,-106.4869283606359,1143.484,2.03,101.6015625,8,10,1494821101.665253,32.17311096191406,20.96426391601562,-94.1890869140625,346.9870910644531,338.7808227539062,25,96.77767516666667,0.04522705078125,-0.56658935546875,-0.78375244140625,96.73989716666668,-0.03227831136008739,-0.08979380247420167,-0.06342664346965417,96.72991216666668,0.09533290191042697,0.05495774748609603,0.5929203268329639,-0.02418756857514381,-0.1321408003568649,-0.04274120554327965,0.001717527746222913,0.01790696941316128,0.001400132547132671,XArbitraryCorrectedZVertical,0.2904425976091465,0.04016158708052843,0.05357007192580707,0.9545472182197645,0.04555420204997063,-0.5587852597236633,-0.8280602693557739,37.85329437255859,13.44094848632812,-91.25762939453125,1,81.55534187500001,unknown,2,2017-05-14 22:04:46.477,null,0,0,0,0,null,94.842754,0,0.07434082,88.03104,0.0.0.0,0.0.0.0,1,1,0.75,0
2017-05-14 22:05:01.775,5,0211D7EC-4A0C-4BE7-80DD-93957CA4B509,my_iOS_device_1,1494821100.966125,31.74850533253676,-106.4869283606359,1143.484,2.03,101.6015625,8,10,1494821101.724056,30.58001708984375,20.44566345214844,-95.193359375,347.8123779296875,339.6061096191406,25,96.83650316666667,0.018585205078125,-0.5562286376953125,-0.787506103515625,96.80982116666667,-0.01746847253815675,-0.07827589707571797,-0.02700312187285844,96.80982116666667,0.09145864606232786,0.04624751728430321,0.5951888714284496,-0.008266881108283997,-0.1238081902265549,-0.01591338403522968,-0.02213746681809425,0.005718258675187826,0.03485989198088646,XArbitraryCorrectedZVertical,0.2918258760411786,0.03548281785040557,0.05046503850550728,0.9544799147173469,0.03828126564621925,-0.5606651306152344,-0.8271572589874268,36.9266242980957,13.44195556640625,-91.63636779785156,1,81.55534187500001,unknown,2,2017-05-14 22:04:46.477,null,0,0,0,0,null,94.842754,0,0.07434082,88.03104,0.0.0.0,0.0.0.0,1,1,0.75,0
2017-05-14 22:05:01.854,6,0211D7EC-4A0C-4BE7-80DD-93957CA4B509,my_iOS_device_1,1494821100.966125,31.74850533253676,-106.4869283606359,1143.484,2.03,101.6015625,8,10,1494821101.84458,29.81697082519531,20.32601928710938,-95.5367431640625,348.1305847167969,339.92431640625,25,96.89534416666667,0.0508880615234375,-0.5519866943359375,-0.8297271728515625,96.87976016666667,-0.1310709351576668,0.1576823060341746,-0.02087199241127801,96.84978916666667,0.09331958980890971,0.04139163277205786,0.5953299127592121,-0.09279195219278336,0.03135622665286064,0.03400393202900887,-0.01715587452054024,0.009588703513145447,0.03994663432240486,XArbitraryCorrectedZVertical,0.2919839085634511,0.03343964449852222,0.0506449559769326,0.9544958228038088,0.03426097705960274,-0.5607819557189941,-0.8272543549537659,36.39190292358398,13.33081436157227,-91.86622619628906,1,81.55534187500001,unknown,2,2017-05-14 22:04:46.477,null,0,0,0,0,null,94.842754,0,0.07434082,88.03104,0.0.0.0,0.0.0.0,1,1,0.75,0
2017-05-14 22:05:01.896,7,0211D7EC-4A0C-4BE7-80DD-93957CA4B509,my_iOS_device_1,1494821100.966125,31.74850533253676,-106.4869283606359,1143.484,2.03,101.6015625,8,10,1494821101.84458,29.81697082519531,20.32601928710938,-95.5367431640625,348.1305847167969,339.92431640625,25,96.95418016666667,0.03887939453125,-0.553070068359375,-0.8128814697265625,96.91472216666668,-0.03662379131076968,0.08291672159129006,-0.02354873562291666,96.92969116666667,0.09221227319882512,0.04884126606937103,0.5897014263477809,-0.02411365695297718,0.0595954917371273,0.001496964483521879,0.002072145929560065,0.00527061615139246,0.0205758698284626,XArbitraryCorrectedZVertical,0.2891247737418406,0.03672918721948879,0.05117598965593417,0.9552166508691443,0.04057617112994194,-0.5561128854751587,-0.8301156759262085,36.88274002075195,13.84920501708984,-91.5933837890625,1,81.55534187500001,unknown,2,2017-05-14 22:04:46.477,null,0,0,0,0,null,94.842754,0,0.07434082,88.03104,0.0.0.0,0.0.0.0,1,1,0.75,0
2017-05-14 22:05:01.949,8,0211D7EC-4A0C-4BE7-80DD-93957CA4B509,my_iOS_device_1,1494821100.966125,31.74850533253676,-106.4869283606359,1143.484,2.03,101.6015625,8,10,1494821101.911514,30.20518493652344,20.57867431640625,-95.1680908203125,348.01123046875,339.8049621582031,25,97.01307112500001,0.0462188720703125,-0.5471954345703125,-0.8284759521484375,96.984713125,-0.03859559578186435,0.1337516731109406,0.0107112339042987,96.99969712500001,0.09378779116616309,0.05282474810095245,0.5891631559844798,-0.0336788073182106,0.07658766210079193,0.0185429397970438,0.0001689943019300699,0.014176812954247,0.00502041494473815,XArbitraryCorrectedZVertical,0.2887344936332708,0.0388493194445259,0.0525010242521345,0.9551789178041546,0.04389838874340057,-0.5556654334068298,-0.8302462697029114,37.35446548461914,13.84439468383789,-91.40274047851562,1,81.55534187500001,unknown,2,2017-05-14 22:04:46.477,null,0,0,0,0,null,94.842754,0,0.07434082,88.03104,0.0.0.0,0.0.0.0,1,1,0.75,0
2017-05-14 22:05:02.029,9,0211D7EC-4A0C-4BE7-80DD-93957CA4B509,my_iOS_device_1,1494821101.983072,31.74853056206531,-106.4868178871521,1138.17,2.03,101.6015625,12,10,1494821101.965372,30.37921142578125,21.07066345214844,-95.1044921875,348.1030578613281,339.8967895507812,25,97.07189012500001,0.0355682373046875,-0.5554962158203125,-0.8011474609375,97.054641125,-0.04577840755791707,0.1560793493740559,-0.01169846772039107,97.03966012500001,0.09469201733137994,0.05610334637045147,0.5877696186174916,-0.02591532282531261,0.1125786677002907,0.01122009661048651,-0.006899162195622921,0.001634621876291931,0.01678325980901718,XArbitraryCorrectedZVertical,0.2879636553061541,0.04051970187744271,0.05339696738013934,0.9552925472634493,0.0466635674238205,-0.5545063018798828,-0.8308701515197754,37.74194717407227,13.99496078491211,-91.220458984375,1,81.55534187500001,unknown,2,2017-05-14 22:04:46.477,null,0,0,0,0,null,94.842754,0,0.07434082,88.03104,0.0.0.0,0.0.0.0,1,1,0.75,0
2017-05-14 22:05:02.069,10,0211D7EC-4A0C-4BE7-80DD-93957CA4B509,my_iOS_device_1,1494821101.983072,31.74853056206531,-106.4868178871521,1138.17,2.03,101.6015625,12,10,1494821102.029379,30.40597534179688,21.4163818359375,-95.2060546875,348.1703186035156,339.9640502929688,25,97.13072212500001,0.07073974609375,-0.5582275390625,-0.81854248046875,97.089602125,-0.028500883669919,0.1750628942563587,-0.02432824287398285,97.079615125,0.09520126318637899,0.059769655247895,0.5872532343589127,-0.03321278095245361,0.1211174577474594,-0.00588371092453599,-0.0141583327203989,-0.001419688109308481,0.02983176335692406,XArbitraryCorrectedZVertical,0.2876076660370479,0.04233460467796378,0.05416415715501011,0.9552778945224123,0.04972657188773155,-0.5540765523910522,-0.8309792280197144,38.01411437988281,14.01772689819336,-91.10386657714844,1,81.55534187500001,unknown,2,2017-05-14 22:04:46.477,null,0,0,0,0,null,94.842754,0,0.07434082,88.03104,0.0.0.0,0.0.0.0,1,1,0.75,0
2017-05-14 22:05:02.126,11,0211D7EC-4A0C-4BE7-80DD-93957CA4B509,my_iOS_device_1,1494821101.983072,31.74853056206531,-106.4868178871521,1138.17,2.03,101.6015625,12,10,1494821102.087023,31.08872985839844,21.37648010253906,-95.0662841796875,348.2337341308594,340.0274658203125,25,97.189566125,0.04278564453125,-0.5509490966796875,-0.8070831298828125,97.15953812500001,-0.0278052659931903,0.1379437549828343,-0.005205148350559871,97.15953812500001,0.09326880490112885,0.07053563260696923,0.5889287982131289,-0.01852086372673512,0.09241213649511337,0.005885274615138769,-0.006709164939820766,-0.002985822269693017,0.02244637906551361,XArbitraryCorrectedZVertical,0.2881585272176299,0.04722738872537992,0.05480567385327305,0.9548458383736299,0.05860430747270584,-0.5554705858230591,-0.8294684886932373,38.89717102050781,13.94013214111328,-90.7423095703125,1,81.55534187500001,unknown,2,2017-05-14 22:04:46.477,null,0,0,0,0,null,94.842754,0,0.07434082,88.03104,0.0.0.0,0.0.0.0,1,1,0.75,0
2017-05-14 22:05:02.184,12,0211D7EC-4A0C-4BE7-80DD-93957CA4B509,my_iOS_device_1,1494821101.983072,31.74853056206531,-106.4868178871521,1138.17,2.03,101.6015625,12,10,1494821102.14614,32.0526123046875,21.32330322265625,-94.53228759765625,348.1698913574219,339.963623046875,25,97.24839912500001,0.05413818359375,-0.5484161376953125,-0.818328857421875,97.22944012500001,0.05267173372347816,0.2031440637384812,-0.00444082111770713,97.19949512500001,0.09479949879817359,0.07373698636119527,0.5882978276323884,-0.04685024544596672,0.1593352258205414,0.006915742065757513,-0.01003095973283052,0.017302380874753,0.02507580816745758,XArbitraryCorrectedZVertical,0.2877314962056438,0.04896526033384748,0.05599078231047791,0.954818318670083,0.06128523126244545,-0.5549458265304565,-0.8296259641647339,39.26115798950195,13.88315582275391,-90.59417724609375,1,81.55534187500001,unknown,2,2017-05-14 22:04:46.477,null,0,0,0,0,null,94.842754,0,0.07434082,88.03104,0.0.0.0,0.0.0.0,1,1,0.75,0
2017-05-14 22:05:02.264,13,0211D7EC-4A0C-4BE7-80DD-93957CA4B509,my_iOS_device_1,1494821101.983072,31.74853056206531,-106.4868178871521,1138.17,2.03,101.6015625,12,10,1494821102.210389,32.89602661132812,21.17703247070312,-94.03656005859375,348.0046691894531,339.7984008789062,25,97.30721112500001,0.0929412841796875,-0.5302276611328125,-0.81536865234375,97.299395125,-0.09037117579853085,0.2751460859181906,-0.08964413282093922,97.26942612500001,0.09376733698118041,0.08467283855165617,0.5904578131642959,0.004561230074614286,0.1496445536613464,-0.08134406805038452,0.004439257085323334,-0.02272639237344265,-0.0340149886906147,XArbitraryCorrectedZVertical,0.2884809673089234,0.05407216744073663,0.05709960960267276,0.9542507882061162,0.07025251537561417,-0.5567413568496704,-0.8277098536491394,40.1940803527832,13.73969650268555,-90.20610809326172,1,81.55534187500001,unknown,2,2017-05-14 22:04:46.477,null,0,0,0,0,null,94.842754,0,0.07434082,88.03104,0.0.0.0,0.0.0.0,1,1,0.75,0
2017-05-14 22:05:02.303,14,0211D7EC-4A0C-4BE7-80DD-93957CA4B509,my_iOS_device_1,1494821101.983072,31.74853056206531,-106.4868178871521,1138.17,2.03,101.6015625,12,10,1494821102.26969,33.44491577148438,21.19032287597656,-93.9476318359375,348.1297607421875,339.9234924316406,25,97.366049125,0.1043243408203125,-0.547027587890625,-0.8058319091796875,97.33435812500001,-0.1271393104403828,0.3601475300107946,-0.08544219725301221,97.34932512500001,0.08643243215224841,0.1099102072852098,0.5823517149902175,-0.1530530452728271,0.3593714833259583,-0.06173767149448395,-0.005412274040281773,-0.004682700149714947,0.03031213022768497,XArbitraryCorrectedZVertical,0.284104632598392,0.06495013216300337,0.05707553633789879,0.9548866012359188,0.0916091725230217,-0.5499895215034485,-0.8301320672035217,41.81031036376953,14.54618453979492,-89.34087371826172,1,81.55534187500001,unknown,2,2017-05-14 22:04:46.477,null,0,0,0,0,null,94.842754,0,0.07434082,88.03104,0.0.0.0,0.0.0.0,1,1,0.75,0
2017-05-14 22:05:02.363,15,0211D7EC-4A0C-4BE7-80DD-93957CA4B509,my_iOS_device_1,1494821101.983072,31.74853056206531,-106.4868178871521,1138.17,2.03,101.6015625,12,10,1494821102.327101,34.56942749023438,21.69564819335938,-93.28668212890625,348.2801208496094,340.0738525390625,25,97.42489312500001,0.1173858642578125,-0.5489501953125,-0.822174072265625,97.40428912500001,-0.05420118713751067,0.138170123675491,-0.05342567462807959,97.38930412500001,0.08437144076803352,0.1215699161615013,0.5776677668516249,-0.0703006312251091,0.1521954089403152,-0.04775512591004372,0.01295460853725672,0.0007682775030843914,0.01774328760802746,XArbitraryCorrectedZVertical,0.28159982335928,0.07016956588058176,0.05763919943270953,0.9552253630410532,0.1015931218862534,-0.5460716485977173,-0.8315555453300476,42.88230514526367,15.10580825805664,-88.73786163330078,1,81.55534187500001,unknown,2,2017-05-14 22:04:46.477,null,0,0,0,0,null,94.842754,0,0.07434082,88.03104,0.0.0.0,0.0.0.0,1,1,0.75,0
2017-05-14 22:05:02.420,16,0211D7EC-4A0C-4BE7-80DD-93957CA4B509,my_iOS_device_1,1494821101.983072,31.74853056206531,-106.4868178871521,1138.17,2.03,101.6015625,12,10,1494821102.387791,35.66716003417969,22.62644958496094,-92.2188720703125,347.8900451660156,339.6837768554688,25,97.48372412500001,0.0994873046875,-0.535491943359375,-0.813873291015625,97.43925312500001,-0.05143975540320751,0.07139748461226132,-0.05890512857091763,97.469222125,0.08044469363738445,0.1274909102553688,0.5751193353088341,0.004184749908745289,-0.009371737018227577,-0.02411876991391182,-0.0006276977946981788,0.001042476040311158,0.01842851936817169,XArbitraryCorrectedZVertical,0.280351602354714,0.07241853431123806,0.05653423506770767,0.9554906672546141,0.1066915392875671,-0.5439349412918091,-0.832317054271698,43.32495880126953,15.55107116699219,-88.44544982910156,1,81.55534187500001,unknown,2,2017-05-14 22:04:46.477,null,0,0,0,0,null,95.84974099999999,0,0.08898926,88.03088,0.0.0.0,0.0.0.0,1,1,0.75,0
2017-05-14 22:05:02.499,17,0211D7EC-4A0C-4BE7-80DD-93957CA4B509,my_iOS_device_1,1494821101.983072,31.74853056206531,-106.4868178871521,1138.17,2.03,101.6015625,12,10,1494821102.480948,36.04200744628906,23.07855224609375,-92.3968505859375,347.827880859375,339.6216125488281,25,97.542562125,0.1091766357421875,-0.5450897216796875,-0.8192291259765625,97.509157125,-0.02393915503872227,0.05741801941821739,-0.03418806417778322,97.509157125,0.07978766371646007,0.1284561267768839,0.5745345303070318,-0.01487334538251162,0.01194234192371368,-0.02314338833093643,0.006096614524722099,0.01262135896831751,0.02713963016867638,XArbitraryCorrectedZVertical,0.2800683931554285,0.0727817142159756,0.05634095961910628,0.9555575406537909,0.1075355857610703,-0.5434440970420837,-0.8325290083885193,43.32294464111328,15.59014129638672,-88.43955993652344,1,81.55534187500001,unknown,2,2017-05-14 22:04:46.477,null,0,0,0,0,null,95.84974099999999,0,0.08898926,88.03088,0.0.0.0,0.0.0.0,1,1,0.75,0
2017-05-14 22:05:02.538,18,0211D7EC-4A0C-4BE7-80DD-93957CA4B509,my_iOS_device_1,1494821101.983072,31.74853056206531,-106.4868178871521,1138.17,2.03,101.6015625,12,10,1494821102.480948,36.04200744628906,23.07855224609375,-92.3968505859375,347.827880859375,339.6216125488281,25,97.60141212500001,0.1078338623046875,-0.5394744873046875,-0.8157958984375,97.579115125,0.007632087051949081,-0.001068992861557806,-0.02982633894445143,97.589101125,0.0767837383690667,0.1299888202987982,0.5762423554140615,0.02635711990296841,-0.03812398016452789,-0.01549077406525612,-0.004824432544410229,0.003571403911337256,0.01651559956371784,XArbitraryCorrectedZVertical,0.2809523239280817,0.07310894811644723,0.05516424356569889,0.9553417082994672,0.10869100689888,-0.5448769330978394,-0.8314417600631714,43.39626693725586,15.58840942382812,-88.40390777587891,1,81.55534187500001,unknown,2,2017-05-14 22:04:46.477,null,0,0,0,0,null,95.84974099999999,0,0.08898926,88.03088,0.0.0.0,0.0.0.0,1,1,0.75,0
2017-05-14 22:05:02.596,19,0211D7EC-4A0C-4BE7-80DD-93957CA4B509,my_iOS_device_1,1494821101.983072,31.74853056206531,-106.4868178871521,1138.17,2.03,101.6015625,12,10,1494821102.538928,35.90812683105469,22.49346923828125,-92.47320556640625,347.8650207519531,339.6587524414062,25,97.66024712500001,0.1062469482421875,-0.5300445556640625,-0.8130645751953125,97.649040125,0.004586496029334464,0.02966814717570073,-0.01910178923470235,97.62905312500001,0.0759006008147735,0.130120402538133,0.576432727021151,0.01039205584675074,-0.02531402185559273,-0.007044997997581959,0.003822912462055683,0.01433588191866875,0.01078318897634745,XArbitraryCorrectedZVertical,0.2810720459774689,0.073049433410287,0.05476578010052033,0.9553339701792564,0.1087869480252266,-0.5450365543365479,-0.831324577331543,43.26228332519531,15.52093887329102,-88.48141479492188,1,81.55534187500001,unknown,2,2017-05-14 22:04:46.477,null,0,0,0,0,null,95.84974099999999,0,0.08898926,88.03088,0.0.0.0,0.0.0.0,1,1,0.75,0
2017-05-14 22:05:02.668,20,0211D7EC-4A0C-4BE7-80DD-93957CA4B509,my_iOS_device_1,1494821101.983072,31.74853056206531,-106.4868178871521,1138.17,2.03,101.6015625,12,10,1494821102.631348,35.74748229980469,22.67962646484375,-92.3206787109375,347.8508605957031,339.6445922851562,25,97.71907912500001,0.1128997802734375,-0.54400634765625,-0.82012939453125,97.68400512500001,-0.01341620662349218,0.03404265558226489,-0.03736814483544683,97.70898012500001,0.07380935851291599,0.1306033428453848,0.5765623337487136,-0.008455706760287285,0.008746836334466934,-0.02738300710916519,0.001767437672242522,-0.003957558423280716,0.01107249595224857,XArbitraryCorrectedZVertical,0.2811972825625022,0.07298728103942442,0.05383809357184222,0.9553545963496958,0.1091792210936546,-0.5451452136039734,-0.8312019109725952,43.16718292236328,15.57681655883789,-88.51803588867188,1,81.55534187500001,unknown,2,2017-05-14 22:04:46.477,null,0,0,0,0,null,95.84974099999999,0,0.08898926,88.03088,0.0.0.0,0.0.0.0,1,1,0.75,0
2017-05-14 22:05:02.750,21,0211D7EC-4A0C-4BE7-80DD-93957CA4B509,my_iOS_device_1,1494821101.983072,31.74853056206531,-106.4868178871521,1138.17,2.03,101.6015625,12,10,1494821102.690084,35.64039611816406,22.97216796875,-92.4478759765625,347.8773803710938,339.6711120605469,25,97.77791012500001,0.1120452880859375,-0.5374755859375,-0.8180694580078125,97.75393512500001,0.005519135043080214,0.01058739691361001,-0.01914173665105353,97.748942125,0.07289762036273884,0.1313616993032623,0.5765589884817587,0.01035916246473789,-0.03060251660645008,-0.007064322475343943,-0.001502887578681111,0.009574183262884617,0.01486700028181076,XArbitraryCorrectedZVertical,0.2812086564500907,0.07322131088048864,0.05350911613830739,0.9553518229744363,0.1098097711801529,-0.5451424121856689,-0.8311206698417664,43.19881057739258,15.60599517822266,-88.49745941162109,1,81.55534187500001,unknown,2,2017-05-14 22:04:46.477,null,0,0,0,0,null,95.84974099999999,0,0.08898926,88.03088,0.0.0.0,0.0.0.0,1,1,0.75,0
2017-05-14 22:05:02.773,22,0211D7EC-4A0C-4BE7-80DD-93957CA4B509,my_iOS_device_1,1494821101.983072,31.74853056206531,-106.4868178871521,1138.17,2.03,101.6015625,12,10,1494821102.750336,35.33247375488281,22.87908935546875,-92.61322021484375,347.9220581054688,339.7157897949219,25,97.836742125,0.1066131591796875,-0.5491485595703125,-0.8092803955078125,97.82385512500001,0.000318247750264469,0.03392680807484644,-0.01378745127944922,97.82884812500001,0.07225401165855712,0.1302896109070839,0.577836653975546,0.0009038755670189857,-0.008288244716823101,-0.004948264919221401,-0.003359344322234392,0.00150484568439424,0.02093053795397282,XArbitraryCorrectedZVertical,0.2818718254892704,0.07262892696072934,0.05308420459040436,0.9552253033640218,0.1088280975818634,-0.5462130904197693,-0.8305466175079346,43.06496047973633,15.51731872558594,-88.57825469970703,1,81.55534187500001,unknown,2,2017-05-14 22:04:46.477,null,0,0,0,0,null,95.84974099999999,0,0.08898926,88.03088,0.0.0.0,0.0.0.0,1,1,0.75,0
2017-05-14 22:05:02.839,23,0211D7EC-4A0C-4BE7-80DD-93957CA4B509,my_iOS_device_1,1494821101.983072,31.74853056206531,-106.4868178871521,1138.17,2.03,101.6015625,12,10,1494821102.810325,35.61360168457031,22.94557189941406,-92.5750732421875,347.9503479003906,339.7440795898438,25,97.89555112500001,0.10736083984375,-0.5314178466796875,-0.822357177734375,97.858816125,-0.0263567726762962,0.03620860449682633,-0.01078047609264076,97.868820125,0.07222420884841688,0.1299772466507837,0.577752846946917,-0.01725403591990471,-0.005005310289561749,0.003460756735876203,-0.002220829017460346,0.002670604968443513,0.00303502450697124,XArbitraryCorrectedZVertical,0.2818411088345616,0.07247486419026716,0.05302376947626341,0.9552494246541262,0.1085745915770531,-0.5461428761482239,-0.8306259512901306,43.02861785888672,15.50153350830078,-88.59867858886719,1,81.55534187500001,unknown,2,2017-05-14 22:04:46.477,null,0,0,0,0,null,95.84974099999999,0,0.08898926,88.03088,0.0.0.0,0.0.0.0,1,1,0.75,0
2017-05-14 22:05:02.899,24,0211D7EC-4A0C-4BE7-80DD-93957CA4B509,my_iOS_device_1,1494821101.983072,31.74853056206531,-106.4868178871521,1138.17,2.03,101.6015625,12,10,1494821102.872385,35.8411865234375,22.74610900878906,-92.43511962890625,347.9524841308594,339.7462158203125,25,97.95439312500001,0.10650634765625,-0.5221710205078125,-0.8245849609375,97.92876012500001,0.01403086420308247,0.01158714758682576,-0.0137395143798278,97.94872112500001,0.07203009638207404,0.1282452827505,0.578612888504161,0.02209161967039108,-0.02643937431275845,-0.0005657808505930007,2.574022983026225e-05,0.01526219118386507,0.01545098330825567,XArbitraryCorrectedZVertical,0.2823052186554864,0.07162720960249359,0.05270895060191864,0.9551937357891787,0.1070756986737251,-0.5468631386756897,-0.8303465843200684,42.89443206787109,15.44824981689453,-88.67301940917969,1,81.55534187500001,unknown,2,2017-05-14 22:04:46.477,null,0,0,0,0,null,95.84974099999999,0,0.08898926,88.03088,0.0.0.0,0.0.0.0,1,1,0.75,0
2017-05-14 22:05:02.994,25,0211D7EC-4A0C-4BE7-80DD-93957CA4B509,my_iOS_device_1,1494821101.983072,31.74853056206531,-106.4868178871521,1138.17,2.03,101.6015625,12,10,1494821102.933365,35.56007385253906,22.546630859375,-92.52398681640625,347.9495544433594,339.7432861328125,25,98.013244125,0.099884033203125,-0.54412841796875,-0.8175201416015625,97.99869212500001,-0.009224923699925473,0.0562185316632457,0.003270628134726312,97.98870012500001,0.07152704311106806,0.1277834694773059,0.578899259235242,0.002054644050076604,0.01288570277392864,0.005784170236438513,-0.002912496449425817,0.003661104012280703,0.003488901304081082,XArbitraryCorrectedZVertical,0.2824722913572895,0.07133792426470069,0.0524107990221883,0.9551823979339371,0.1066722646355629,-0.5471028685569763,-0.8302406072616577,42.78633880615234,15.42093658447266,-88.72997283935547,1,81.55534187500001,unknown,2,2017-05-14 22:04:46.477,null,0,0,0,0,null,95.84974099999999,0,0.08898926,88.03088,0.0.0.0,0.0.0.0,1,1,0.75,0
2017-05-14 22:05:03.008,26,0211D7EC-4A0C-4BE7-80DD-93957CA4B509,my_iOS_device_1,1494821102.970283,31.74853056206531,-106.4868178871521,1136.649,0,101.6015625,12,10,1494821102.994613,35.1182861328125,22.74607849121094,-92.8165283203125,347.96875,339.7624816894531,25,98.072078125,0.1150970458984375,-0.5363006591796875,-0.822235107421875,98.03365412500001,0.0226898661713661,0.05176679158506924,0.01417094647642063,98.028661125,0.07234849794152881,0.1275221574115744,0.5797070281035726,0.03071754984557629,0.005266329273581505,0.02198986150324345,0.0008549600024707615,0.009189375676214695,0.01218762993812561,XArbitraryCorrectedZVertical,0.2828361503270306,0.07133576385232965,0.05278669381150677,0.9550541795208501,0.1063990667462349,-0.547778844833374,-0.8298298120498657,42.81012344360352,15.33829879760742,-88.73282623291016,1,81.55534187500001,unknown,2,2017-05-14 22:04:46.477,null,0,0,0,0,null,95.84974099999999,0,0.08898926,88.03088,0.0.0.0,0.0.0.0,1,1,0.75,0
2017-05-14 22:05:03.072,27,0211D7EC-4A0C-4BE7-80DD-93957CA4B509,my_iOS_device_1,1494821102.970283,31.74853056206531,-106.4868178871521,1136.649,0,101.6015625,12,10,1494821103.049977,35.29229736328125,22.57321166992188,-92.77838134765625,347.9972534179688,339.7909851074219,25,98.130909125,0.099945068359375,-0.552093505859375,-0.8167877197265625,98.103572125,-0.002550775692077894,0.07845699202984337,-0.01690095290986086,98.10856512500001,0.07288456930686341,0.1300209204677756,0.5811994014466653,0.00335609307512641,0.03621108829975128,-0.006956917699426413,-0.002073445124551654,-0.001327207079157233,0.01505968626588583,XArbitraryCorrectedZVertical,0.2834640301674863,0.07261685640793578,0.05343463943982495,0.9547353953188161,0.1083661690354347,-0.5490267872810364,-0.8287498950958252,43.05903625488281,15.18810272216797,-88.63817596435547,1,81.55534187500001,unknown,2,2017-05-14 22:04:46.477,null,0,0,0,0,null,95.84974099999999,0,0.08898926,88.03088,0.0.0.0,0.0.0.0,1,1,0.75,0
2017-05-14 22:05:03.152,28,0211D7EC-4A0C-4BE7-80DD-93957CA4B509,my_iOS_device_1,1494821102.970283,31.74853056206531,-106.4868178871521,1136.649,0,101.6015625,12,10,1494821103.110331,35.30567932128906,22.42694091796875,-92.66412353515625,348.0306396484375,339.8243713378906,25,98.189718125,0.115875244140625,-0.5296173095703125,-0.801727294921875,98.173511125,-0.05009912011046162,0.1624427064826912,0.005359611693784467,98.148539125,0.07285852166859462,0.1322492476783954,0.581555822703374,0.0002707690582610667,0.06164732947945595,0.004822827409952879,0.001248122309334576,0.008110671304166317,0.01289788167923689,XArbitraryCorrectedZVertical,0.283575649751468,0.07367968351512079,0.05374741605530956,0.9546032528608557,0.1101868152618408,-0.549324631690979,-0.8283123373985291,43.18199157714844,15.14022445678711,-88.58653259277344,1,81.55534187500001,unknown,2,2017-05-14 22:04:46.477,null,0,0,0,0,null,95.84974099999999,0,0.08898926,88.03088,0.0.0.0,0.0.0.0,1,1,0.75,0
2017-05-14 22:05:03.237,29,0211D7EC-4A0C-4BE7-80DD-93957CA4B509,my_iOS_device_1,1494821102.970283,31.74853056206531,-106.4868178871521,1136.649,0,101.6015625,12,10,1494821103.230986,36.55068969726562,22.59979248046875,-92.5496826171875,348.0729064941406,339.8666381835938,25,98.24857112500001,0.113922119140625,-0.554351806640625,-0.824188232421875,98.243441125,-0.002096440410110376,0.1378066021866952,-0.02315458778158493,98.22845712500001,0.07371335909637346,0.1397456259089039,0.578811685513737,-0.01633700355887413,0.09888726472854614,-0.03042744472622871,-0.003122920403257012,-0.002805635565891862,0.003436904866248369,XArbitraryCorrectedZVertical,0.2820275047093415,0.07735735669247056,0.05514051949238945,0.9546914941818064,0.1166025325655937,-0.5470295548439026,-0.8289526700973511,43.94174575805664,15.36588668823242,-88.17311096191406,1,98.185400125,stationary,0,2017-05-14 22:05:03.106,null,0,0,0,0,null,95.84974099999999,0,0.08898926,88.03088,0.0.0.0,0.0.0.0,1,1,0.75,0
2017-05-14 22:05:03.244,30,0211D7EC-4A0C-4BE7-80DD-93957CA4B509,my_iOS_device_1,1494821102.970283,31.74853056206531,-106.4868178871521,1136.649,0,101.6015625,12,10,1494821103.230986,36.55068969726562,22.59979248046875,-92.5496826171875,348.0729064941406,339.8666381835938,25,98.307389125,0.1238555908203125,-0.53045654296875,-0.8043365478515625,98.27838712500001,0.005213936782157132,0.153596484289775,0.02389494656462696,98.26840112500001,0.07372156373410696,0.1431967623433929,0.5795930666786031,0.01839327625930309,0.09757465124130249,0.02316004410386086,-0.008790666237473488,0.003524571424350142,0.02219852618873119,XArbitraryCorrectedZVertical,0.282305114577752,0.07901156961434895,0.05565367654871937,0.9544441641274435,0.1194016262888908,-0.5476834774017334,-0.8281219601631165,44.24878692626953,15.33303833007812,-88.02515411376953,1,98.185400125,stationary,0,2017-05-14 22:05:03.106,null,0,0,0,0,null,95.84974099999999,0,0.08898926,88.03088,0.0.0.0,0.0.0.0,1,1,0.75,0
2017-05-14 22:05:03.313,31,0211D7EC-4A0C-4BE7-80DD-93957CA4B509,my_iOS_device_1,1494821102.970283,31.74853056206531,-106.4868178871521,1136.649,0,101.6015625,12,10,1494821103.292801,36.96568298339844,22.24078369140625,-92.0794677734375,348.0817260742188,339.8754577636719,25,98.366235125,0.1199188232421875,-0.5653228759765625,-0.8101959228515625,98.348336125,0.006854444013645943,0.2542293524005992,0.04763276662493924,98.348336125,0.07758948290931658,0.1529338163842418,0.5834662070203105,0.01577645353972912,0.2088190168142319,0.05862974748015404,-0.009291577152907848,-0.01806499436497688,0.004611747339367867,XArbitraryCorrectedZVertical,0.2837186150537607,0.08423199830632991,0.05899255734646065,0.9533774678011996,0.1271352022886276,-0.5509200096130371,-0.824817419052124,45.20368957519531,14.91604995727539,-87.61064147949219,1,98.185400125,stationary,0,2017-05-14 22:05:03.106,null,0,0,0,0,null,95.84974099999999,0,0.08898926,88.03088,0.0.0.0,0.0.0.0,1,1,0.75,0
2017-05-14 22:05:03.392,32,0211D7EC-4A0C-4BE7-80DD-93957CA4B509,my_iOS_device_1,1494821102.970283,31.74853056206531,-106.4868178871521,1136.649,0,101.6015625,12,10,1494821103.352582,37.67521667480469,21.77537536621094,-91.76171875,347.8697204589844,339.6634521484375,25,98.42508412500001,0.137176513671875,-0.5512847900390625,-0.794830322265625,98.38329812500001,0.005345496940007047,0.1948890633075626,0.05174415471580357,98.38829112500001,0.0806461744456843,0.1583049249322002,0.5852579354886757,0.02276414074003696,0.1346009373664856,0.0531659871339798,0.007447268348187208,0.01072739623486996,0.03234460577368736,XArbitraryCorrectedZVertical,0.2842815220069619,0.08723940159880125,0.06126836322207031,0.9527956185469058,0.1314077079296112,-0.5524144172668457,-0.8231465816497803,45.97571182250977,14.63283920288086,-87.25593566894531,1,98.185400125,stationary,0,2017-05-14 22:05:03.106,null,0,0,0,0,null,95.84974099999999,0,0.08898926,88.03088,0.0.0.0,0.0.0.0,1,1,0.75,0
2017-05-14 22:05:03.421,33,0211D7EC-4A0C-4BE7-80DD-93957CA4B509,my_iOS_device_1,1494821102.970283,31.74853056206531,-106.4868178871521,1136.649,0,101.6015625,12,10,1494821103.41173,38.27764892578125,21.54933166503906,-91.596435546875,347.580810546875,339.3745422363281,25,98.48392812500001,0.133514404296875,-0.535491943359375,-0.825286865234375,98.453220125,-0.05895865810882822,0.08941989465715455,-0.02796905040023017,98.468215125,0.07957282580121545,0.1639881441973918,0.5841785052247407,-0.02876596339046955,0.03857634961605072,-0.01042585540562868,-0.003780442755669355,0.01457277778536081,0.005042182747274637,XArbitraryCorrectedZVertical,0.2836393287764188,0.08978627580707726,0.06152858892946091,0.9527336398974858,0.1361809521913528,-0.5515143275260925,-0.8229743242263794,46.45852661132812,14.68306350708008,-86.99136352539062,1,98.185400125,stationary,0,2017-05-14 22:05:03.106,null,0,0,0,0,null,96.858835,0,0.08898926,88.03088,0.0.0.0,0.0.0.0,1,1,0.75,0
2017-05-14 22:05:03.479,34,0211D7EC-4A0C-4BE7-80DD-93957CA4B509,my_iOS_device_1,1494821102.970283,31.74853056206531,-106.4868178871521,1136.649,0,101.6015625,12,10,1494821103.472621,38.65245056152344,22.02801513671875,-91.34234619140625,347.5307922363281,339.3245239257812,25,98.54276412500001,0.1273193359375,-0.54254150390625,-0.7980194091796875,98.523162125,0.00624431380790879,0.1440594381100923,0.01854332435411273,98.508177125,0.08043906503913095,0.1663881192746031,0.5818544421001617,-0.03174950927495956,0.1031854227185249,0.02919605933129787,0.001769126974977553,0.0113966753706336,-0.003058391623198986,XArbitraryCorrectedZVertical,0.2824165045542207,0.09103542015023301,0.06220247088386908,0.9529345847692758,0.1383675932884216,-0.5495741367340088,-0.8239069581031799,46.682373046875,14.87140655517578,-86.83940124511719,1,98.185400125,stationary,0,2017-05-14 22:05:03.106,null,0,0,0,0,null,96.858835,0,0.08898926,88.03088,0.0.0.0,0.0.0.0,1,1,0.75,0
2017-05-14 22:05:03.556,35,0211D7EC-4A0C-4BE7-80DD-93957CA4B509,my_iOS_device_1,1494821102.970283,31.74853056206531,-106.4868178871521,1136.649,0,101.6015625,12,10,1494821103.508261,38.78633117675781,22.05461120605469,-91.088134765625,347.5119323730469,339.3056640625,25,98.60157712500001,0.1461639404296875,-0.552703857421875,-0.8221435546875,98.593069125,-0.02250131436618849,0.1527165758656129,0.01834891359453694,98.588076125,0.08309011003476763,0.1758966477728266,0.5827658220216742,-0.02308418601751328,0.1211464107036591,0.02930618636310101,-0.0002183705364586785,-0.009814801625907421,-0.0001135134443757124,XArbitraryCorrectedZVertical,0.2824255919701301,0.09594532605226756,0.0648398335470334,0.9522741597852183,0.1461076587438583,-0.5503353476524353,-0.8220605850219727,47.59302520751953,14.76020431518555,-86.36274719238281,1,98.185400125,stationary,0,2017-05-14 22:05:03.106,null,0,0,0,0,null,96.858835,0,0.08898926,88.03088,0.0.0.0,0.0.0.0,1,1,0.75,0
2017-05-14 22:05:03.631,36,0211D7EC-4A0C-4BE7-80DD-93957CA4B509,my_iOS_device_1,1494821102.970283,31.74853056206531,-106.4868178871521,1136.649,0,101.6015625,12,10,1494821103.596566,39.60295104980469,21.42964172363281,-90.84661865234375,347.7184753417969,339.51220703125,25,98.66044012500001,0.14697265625,-0.53814697265625,-0.8136749267578125,98.628055125,-0.04820348204654322,0.1338102626549223,0.01170645720366131,98.628055125,0.08415272327174493,0.1789257641321936,0.5812983133386165,-0.0392846055328846,0.08840610831975937,0.02269963175058365,0.0005360631621442735,0.03389645367860794,0.04070029035210609,XArbitraryCorrectedZVertical,0.2815750192981606,0.09752682309062891,0.06571944776834052,0.9523050884407369,0.1487406641244888,-0.5491094589233398,-0.8224080801010132,47.97891998291016,14.83480834960938,-86.13615417480469,1,98.185400125,stationary,0,2017-05-14 22:05:03.106,null,0,0,0,0,null,96.858835,0,0.08898926,88.03088,0.0.0.0,0.0.0.0,1,1,0.75,0
2017-05-14 22:05:03.655,37,0211D7EC-4A0C-4BE7-80DD-93957CA4B509,my_iOS_device_1,1494821102.970283,31.74853056206531,-106.4868178871521,1136.649,0,101.6015625,12,10,1494821103.653455,39.88410949707031,21.28337097167969,-90.80853271484375,346.9408264160156,338.7345581054688,25,98.719261125,0.1359100341796875,-0.537200927734375,-0.8071441650390625,98.697980125,-0.08892374774607278,0.1033407703072167,0.004922853275011472,98.66801012500001,0.08269478715486585,0.1773728768490977,0.5859235743264095,0.06304912269115448,-0.08706258982419968,0.01022580731660128,-0.001109138946048915,0.007986231707036495,-0.01335151214152575,XArbitraryCorrectedZVertical,0.2839031534873573,0.09661437798621728,0.06497513946498444,0.9517577909624811,0.1470136791467667,-0.5529691576957703,-0.8201293349266052,47.90929794311523,14.52579116821289,-86.22752380371094,1,98.185400125,stationary,0,2017-05-14 22:05:03.106,null,0,0,0,0,null,96.858835,0,0.08898926,88.03088,0.0.0.0,0.0.0.0,1,1,0.75,0
2017-05-14 22:05:03.714,38,0211D7EC-4A0C-4BE7-80DD-93957CA4B509,my_iOS_device_1,1494821102.970283,31.74853056206531,-106.4868178871521,1136.649,0,101.6015625,12,10,1494821103.653455,39.88410949707031,21.28337097167969,-90.80853271484375,346.9408264160156,338.7345581054688,25,98.77810512500001,0.1511993408203125,-0.5472869873046875,-0.8059844970703125,98.73292412500001,-0.02334660169617964,0.1633519096788443,-0.00724353184890652,98.747933125,0.08496288013577565,0.1809811525124635,0.5832550976244298,0.04589215666055679,0.05609183013439178,0.01579122804105282,-0.006087252404540777,0.01102516800165176,0.04029562324285507,XArbitraryCorrectedZVertical,0.2824010258356971,0.09863375803076746,0.06646723731871354,0.9518945050513202,0.150237038731575,-0.5507438182830811,-0.8210420608520508,48.15645217895508,14.73319244384766,-86.05448913574219,1,98.185400125,stationary,0,2017-05-14 22:05:03.106,null,0,0,0,0,null,96.858835,0,0.08898926,88.03088,0.0.0.0,0.0.0.0,1,1,0.75,1
2017-05-14 22:05:03.790,39,0211D7EC-4A0C-4BE7-80DD-93957CA4B509,my_iOS_device_1,1494821102.970283,31.74853056206531,-106.4868178871521,1136.649,0,101.6015625,12,10,1494821103.773689,40.08491516113281,21.56265258789062,-90.3382568359375,346.8758850097656,338.6696166992188,25,98.83694712500001,0.1222991943359375,-0.5843353271484375,-0.7958984375,98.802875125,-0.01826049664634631,-0.000971787481769914,0.02013695995041614,98.78788912500001,0.08586060342262909,0.181728978046296,0.5843430644100251,-0.02620328217744827,-0.0187168512493372,0.03107353299856186,0.001158639672212303,0.004471392370760441,0.0004849581455346197,XArbitraryCorrectedZVertical,0.2828506467714755,0.0991244893161046,0.06704061019701996,0.9516697976836275,0.1507426053285599,-0.5516515970230103,-0.8203396797180176,48.37960052490234,14.51821517944336,-85.9658203125,1,98.81360412500001,unknown,2,2017-05-14 22:05:03.734,null,0,0,0,0,null,96.858835,0,0.08898926,88.03088,0.0.0.0,0.0.0.0,1,1,0.75,1
2017-05-14 22:05:03.874,40,0211D7EC-4A0C-4BE7-80DD-93957CA4B509,my_iOS_device_1,1494821102.970283,31.74853056206531,-106.4868178871521,1136.649,0,101.6015625,12,10,1494821103.834355,40.36607360839844,20.91110229492188,-91.011962890625,346.5964660644531,338.3901977539062,25,98.89578412500001,0.0608062744140625,-0.6837921142578125,-0.6526031494140625,98.872805125,0.2057611521417021,-0.0372898478993985,-0.01775689288421233,98.867812125,0.08709413136737428,0.1753391299183727,0.5919714740795133,0.2051633447408676,-0.07522887736558914,-0.006802371703088284,-0.0704643577337265,-0.08706718683242798,0.112727127969265,XArbitraryCorrectedZVertical,0.2866412821549797,0.09631963736981798,0.06699509517805657,0.9508264615814941,0.144759401679039,-0.5579981207847595,-0.8171185851097107,47.955078125,13.87509536743164,-86.30919647216797,1,98.81360412500001,unknown,2,2017-05-14 22:05:03.734,null,0,0,0,0,null,96.858835,0,0.08898926,88.03088,0.0.0.0,0.0.0.0,1,1,0.75,1
2017-05-14 22:05:03.893,41,0211D7EC-4A0C-4BE7-80DD-93957CA4B509,my_iOS_device_1,1494821102.970283,31.74853056206531,-106.4868178871521,1136.649,0,101.6015625,12,10,1494821103.834355,40.36607360839844,20.91110229492188,-91.011962890625,346.5964660644531,338.3901977539062,25,98.954611125,0.0699615478515625,-0.773529052734375,-0.698577880859375,98.94273712500001,0.1364318784319963,-0.004053863811318616,0.01915585140483095,98.94773012500001,0.08574276204409897,0.1671528520882193,0.6178899202232324,0.143279030919075,-0.04419788718223572,0.04832804948091507,-0.06832190603017807,-0.2072282731533051,0.118180014193058,XArbitraryCorrectedZVertical,0.2993056429627859,0.0924394853879868,0.06604543561410547,0.947369555171785,0.1356131583452225,-0.5793164968490601,-0.8037421703338623,47.28023529052734,12.06513595581055,-86.95111846923828,1,98.81360412500001,unknown,2,2017-05-14 22:05:03.734,null,0,0,0,0,null,96.858835,0,0.08898926,88.03088,0.0.0.0,0.0.0.0,1,1,0.75,1
2017-05-14 22:05:03.956,42,0211D7EC-4A0C-4BE7-80DD-93957CA4B509,my_iOS_device_1,1494821102.970283,31.74853056206531,-106.4868178871521,1136.649,0,101.6015625,12,10,1494821103.89472,40.071533203125,19.58139038085938,-91.3170166015625,346.4877014160156,338.2814331054688,25,99.01344912500001,0.0807647705078125,-0.6031951904296875,-0.75555419921875,99.01266212500001,0.09955535313377811,-0.3453667196447459,0.262423100126446,98.98769112500001,0.09148614408551679,0.1589900847031644,0.6243572129151285,0.1432064920663834,-0.2256170809268951,0.2100920826196671,-0.03270319476723671,-0.07701469957828522,0.05574484914541245,XArbitraryCorrectedZVertical,0.3023867276382909,0.08949401777898869,0.06774385427154482,0.9465536740927168,0.1284520924091339,-0.584575891494751,-0.8011061549186707,46.91650772094727,10.75415420532227,-87.31938171386719,1,98.81360412500001,unknown,2,2017-05-14 22:05:03.734,null,0,0,0,0,null,96.858835,0,0.08898926,88.03088,0.0.0.0,0.0.0.0,1,1,0.75,1
2017-05-14 22:05:04.025,43,0211D7EC-4A0C-4BE7-80DD-93957CA4B509,my_iOS_device_1,1494821103.962491,31.74853056206531,-106.4868178871521,1142.932,0,101.6015625,12,10,1494821104.018671,38.05007934570312,17.67990112304688,-91.9400634765625,345.4929504394531,337.2866821289062,25,99.07228012500001,0.072601318359375,-0.5123291015625,-0.7514190673828125,99.04762012500001,-0.04697230267459959,-0.2742259637615682,0.03952557163452002,99.027647125,0.1034517525111501,0.136951473123474,0.6320957588529774,0.0753917396068573,-0.4477666914463043,0.2303865849971771,-0.03827725723385811,0.01159800216555595,0.04441510140895844,XArbitraryCorrectedZVertical,0.3063070759277905,0.08097861060126407,0.07026491963112078,0.9458759331597844,0.1101461499929428,-0.5908368825912476,-0.7992368936538696,45.99021148681641,9.783557891845703,-87.92420959472656,1,98.81360412500001,unknown,2,2017-05-14 22:05:03.734,null,0,0,0,0,null,96.858835,0,0.08898926,88.03088,0.0.0.0,0.0.0.0,1,1,0.75,1
2017-05-14 22:05:04.070,44,0211D7EC-4A0C-4BE7-80DD-93957CA4B509,my_iOS_device_1,1494821103.962491,31.74853056206531,-106.4868178871521,1142.932,0,101.6015625,12,10,1494821104.018671,38.05007934570312,17.67990112304688,-91.9400634765625,345.4929504394531,337.2866821289062,25,99.13111512500001,0.1045989990234375,-0.71405029296875,-0.7418060302734375,99.11755612500001,0.388122439365423,-0.269918567014474,-0.4747801033399474,99.10757012500001,0.08830333225474542,0.127309797782108,0.6356694972904806,0.3364807367324829,-0.2588860690593719,-0.4117576777935028,-0.01160551514476538,-0.07475591450929642,0.0291039664298296,XArbitraryCorrectedZVertical,0.3089065982591941,0.0741324271510139,0.06170178024156991,0.9461891920285594,0.1021664291620255,-0.5937163829803467,-0.7981622219085693,44.00394058227539,9.900440216064453,-88.92198181152344,1,98.81360412500001,unknown,2,2017-05-14 22:05:03.734,null,0,0,0,0,null,96.858835,0,0.08898926,88.03088,0.0.0.0,0.0.0.0,1,1,0.75,1
2017-05-14 22:05:04.126,45,0211D7EC-4A0C-4BE7-80DD-93957CA4B509,my_iOS_device_1,1494821103.962491,31.74853056206531,-106.4868178871521,1142.932,0,101.6015625,12,10,1494821104.07765,36.61766052246094,16.97514343261719,-92.6390380859375,346.8460693359375,338.6398010253906,25,99.189959125,0.0205535888671875,-0.7279052734375,-0.749542236328125,99.15250812500001,0.2969155636168253,-0.3837359467339534,-0.5248347486602046,99.14752612500001,0.06175193342356611,0.1296870176639245,0.6492222088264589,0.3403524458408356,-0.3986622393131256,-0.5134540796279907,0.006300544366240501,-0.1409621387720108,0.07563173770904541,XArbitraryCorrectedZVertical,0.3162223282643056,0.07121004620501176,0.04985418743423814,0.9446941983636072,0.1030134186148643,-0.6045670509338379,-0.7898651361465454,42.85730743408203,9.208492279052734,-89.55412292480469,1,98.81360412500001,unknown,2,2017-05-14 22:05:03.734,null,0,0,0,0,null,96.858835,0,0.08898926,88.03088,0.0.0.0,0.0.0.0,1,1,0.75,1
2017-05-14 22:05:04.185,46,0211D7EC-4A0C-4BE7-80DD-93957CA4B509,my_iOS_device_1,1494821103.962491,31.74853056206531,-106.4868178871521,1142.932,0,101.6015625,12,10,1494821104.136525,34.66310119628906,16.6826171875,-93.605224609375,348.1868896484375,339.9806213378906,25,99.248790125,0.0449676513671875,-0.66705322265625,-0.725006103515625,99.22243312500001,-0.3219809694805421,-1.042374300146355,-0.393433581527368,99.22744912500001,0.01899228190103598,0.08383799311169006,0.6473301446753474,-0.427911251783371,-1.06695020198822,-0.3949361443519592,-0.04093532636761665,-0.00443934602662921,0.08981680870056152,XArbitraryCorrectedZVertical,0.317372453533608,0.04274645767431503,0.02232257792462258,0.9470740037658936,0.06679897755384445,-0.6030588150024414,-0.7948949337005615,36.11656188964844,9.958629608154297,-92.40077972412109,1,98.81360412500001,unknown,2,2017-05-14 22:05:03.734,null,0,0,0,0,null,96.858835,0,0.08898926,88.03088,0.0.0.0,0.0.0.0,1,1,0.75,1
2017-05-14 22:05:04.263,47,0211D7EC-4A0C-4BE7-80DD-93957CA4B509,my_iOS_device_1,1494821103.962491,31.74853056206531,-106.4868178871521,1142.932,0,101.6015625,12,10,1494821104.255624,25.65347290039062,17.75965881347656,-95.39752197265625,351.5674438476562,343.3611755371094,25,99.30761712500001,-0.009857177734375,-0.650360107421875,-0.8070526123046875,99.29238112500001,0.6039554004336958,-0.2608505035027542,-0.3312034963354865,99.26740412500001,0.008612011521483711,0.06089323529505589,0.6223443643188209,-0.3867997229099274,-0.4475803673267365,-0.1295404136180878,-0.004539423156529665,-0.08736175298690796,0.04877058416604996,XArbitraryCorrectedZVertical,0.3059052099072053,0.03029745746365699,0.01341775727591894,0.951485170884211,0.04944603890180588,-0.5829415917396545,-0.8110081553459167,33.24494171142578,12.36129760742188,-93.18507385253906,1,98.81360412500001,unknown,2,2017-05-14 22:05:03.734,null,0,0,0,0,null,96.858835,0,0.08898926,88.03088,0.0.0.0,0.0.0.0,1,1,0.75,1
2017-05-14 22:05:04.302,48,0211D7EC-4A0C-4BE7-80DD-93957CA4B509,my_iOS_device_1,1494821103.962491,31.74853056206531,-106.4868178871521,1142.932,0,101.6015625,12,10,1494821104.292495,24.1273193359375,16.828857421875,-96.0330810546875,354.1515502929688,345.9452819824219,25,99.36645712500001,0.0809783935546875,-0.7656707763671875,-0.57061767578125,99.32734412500001,1.426663119122609,0.1550508365610673,-0.5790620347763981,99.34730312500001,-0.04009060004849522,0.08419307828205812,0.6978480558779444,1.510908365249634,0.4853819310665131,-0.5836207866668701,-0.02543333545327187,-0.08736439049243927,0.1385279148817062,XArbitraryCorrectedZVertical,0.3423080604908137,0.03269352552105198,-0.004434330638253072,0.9390083395922623,0.06443480402231216,-0.6425703167915344,-0.7635126709938049,31.63671684265137,7.190780639648438,-94.28094482421875,1,98.81360412500001,unknown,2,2017-05-14 22:05:03.734,null,0,0,0,0,null,96.858835,0,0.08898926,88.03088,0.0.0.0,0.0.0.0,1,1,0.75,1
2017-05-14 22:05:04.361,49,0211D7EC-4A0C-4BE7-80DD-93957CA4B509,my_iOS_device_1,1494821103.962491,31.74853056206531,-106.4868178871521,1142.932,0,101.6015625,12,10,1494821104.345925,23.605224609375,12.18818664550781,-96.808349609375,357.259521484375,349.0532531738281,25,99.425291125,0.121307373046875,-0.7180633544921875,-0.4783172607421875,99.397276125,0.8114598578249638,0.3449525980952385,-0.2342441926323176,99.387258125,-0.07321527541543271,0.1308579492690581,0.7493076568721057,1.080845952033997,0.5248329639434814,-0.3348969519138336,0.01834050752222538,-0.07416278123855591,0.1631414741277695,XArbitraryCorrectedZVertical,0.3671496749623926,0.04744132079804425,-0.01007718820609223,0.928896596793104,0.09553583711385727,-0.6811320185661316,-0.7259008884429932,33.26186752319336,3.621555328369141,-93.92559814453125,1,98.81360412500001,unknown,2,2017-05-14 22:05:03.734,null,0,0,0,0,null,96.858835,0,0.08898926,88.03088,0.0.0.0,0.0.0.0,1,1,0.75,1
2017-05-14 22:05:04.430,50,0211D7EC-4A0C-4BE7-80DD-93957CA4B509,my_iOS_device_1,1494821103.962491,31.74853056206531,-106.4868178871521,1142.932,0,101.6015625,12,10,1494821104.406624,24.36831665039062,7.813461303710938,-96.770263671875,356.2294311523438,348.0231628417969,25,99.484121125,0.06610107421875,-0.7216339111328125,-0.67144775390625,99.467202125,-0.6084718553263612,-0.1533520061017057,0.2373060289375817,99.467202125,-0.07177529946251593,0.1303715697639318,0.7558825999799326,-0.5995051264762878,-0.1987723112106323,0.2483340799808502,-0.01481029577553272,-0.02465537376701832,0.08321604877710342,XArbitraryCorrectedZVertical,0.3701592931609863,0.04729163929289349,-0.009255382989758715,0.9277175951900808,0.09459850192070007,-0.6859311461448669,-0.7214912176132202,34.21700286865234,1.368526458740234,-93.64192199707031,1,98.81360412500001,unknown,2,2017-05-14 22:05:03.734,null,0,0,0,0,null,96.858835,0,0.08898926,88.03088,0.0.0.0,0.0.0.0,1,1,0.75,1
2017-05-14 22:05:04.512,51,0211D7EC-4A0C-4BE7-80DD-93957CA4B509,my_iOS_device_1,1494821103.962491,31.74853056206531,-106.4868178871521,1142.932,0,101.6015625,12,10,1494821104.496928,24.43527221679688,8.863906860351562,-96.70672607421875,354.0350646972656,345.8287963867188,25,99.542950125,0.019744873046875,-0.712005615234375,-0.7424468994140625,99.537131125,-0.2207017521731556,-0.1143963509404627,0.2040277005881695,99.50716212500001,-0.05296958456501023,0.1083333251646635,0.7331304546129608,-0.509441077709198,-0.2777683138847351,0.2605544626712799,-0.02969937957823277,-0.05789745971560478,0.01166091952472925,XArbitraryCorrectedZVertical,0.3590982692037062,0.04104818137485458,-0.005288467669403438,0.9323816342949024,0.08034329861402512,-0.6691991090774536,-0.7387269735336304,33.53457260131836,2.975372314453125,-93.85128784179688,1,98.81360412500001,unknown,2,2017-05-14 22:05:03.734,null,0,0,0,0,null,96.858835,0,0.08898926,88.03088,0.0.0.0,0.0.0.0,1,1,0.75,1
2017-05-14 22:05:04.538,52,0211D7EC-4A0C-4BE7-80DD-93957CA4B509,my_iOS_device_1,1494821103.962491,31.74853056206531,-106.4868178871521,1142.932,0,101.6015625,12,10,1494821104.496928,24.43527221679688,8.863906860351562,-96.70672607421875,354.0350646972656,345.8287963867188,25,99.60179512500001,0.0543212890625,-0.7054290771484375,-0.670989990234375,99.57210012500001,0.1934618752793892,0.1290133768994716,0.0988823723263151,99.587085125,-0.03241516773199804,0.0870873164366523,0.7332072552125218,0.2779922783374786,0.1425449550151825,0.03593910112977028,-0.01926249824464321,-0.03873638808727264,0.07227765023708344,XArbitraryCorrectedZVertical,0.3587186291663707,0.03482821053841904,0.0004855161655928721,0.9327956395233349,0.06462687999010086,-0.6692561507225037,-0.7402158975601196,32.56684112548828,3.152347564697266,-94.18571472167969,1,98.81360412500001,unknown,2,2017-05-14 22:05:03.734,null,0,0,0,0,null,96.858835,0,0.08898926,88.03088,0.0.0.0,0.0.0.0,1,1,0.75,1
2017-05-14 22:05:04.597,53,0211D7EC-4A0C-4BE7-80DD-93957CA4B509,my_iOS_device_1,1494821103.962491,31.74853056206531,-106.4868178871521,1142.932,0,101.6015625,12,10,1494821104.558345,23.91316223144531,9.621841430664062,-96.56683349609375,354.3125610351562,346.1062927246094,25,99.660629125,0.1058502197265625,-0.7272796630859375,-0.634918212890625,99.64202412500001,-0.005402488587334743,0.2692405262009399,-0.02925908563226456,99.62704012500001,-0.03395381192042751,0.09407423264832739,0.7418837955180642,0.02676938287913799,0.1749162375926971,-0.02029187232255936,0.01154629047960043,-0.01369899325072765,0.09499081969261169,XArbitraryCorrectedZVertical,0.3627842393459181,0.03766855603477062,0.00123791769807075,0.9311107040133492,0.0692489966750145,-0.6756778359413147,-0.7339373230934143,33.04322052001953,2.235675811767578,-94.04590606689453,1,98.81360412500001,unknown,2,2017-05-14 22:05:03.734,null,0,0,0,0,null,97.00638600000001,0,0.1047363,88.03071,0.0.0.0,0.0.0.0,1,1,0.75,1
2017-05-14 22:05:04.664,54,0211D7EC-4A0C-4BE7-80DD-93957CA4B509,my_iOS_device_1,1494821103.962491,31.74853056206531,-106.4868178871521,1142.932,0,101.6015625,12,10,1494821104.617499,23.79267883300781,9.555343627929688,-95.8931884765625,354.8895874023438,346.6833190917969,25,99.719442125,0.041015625,-0.74456787109375,-0.710845947265625,99.67699412500001,0.1402093061221647,0.1283079055267096,0.08140617662099711,99.706963125,-0.0293724220142445,0.1021562666413944,0.7573152208969136,0.1164436563849449,0.02046732604503632,0.1667549908161163,-0.01549716200679541,-0.07868257910013199,0.02266866713762283,XArbitraryCorrectedZVertical,0.3698482395849753,0.04201226848066967,0.005244409586159093,0.9281270091647471,0.07410617172718048,-0.6869729161262512,-0.7228944897651672,34.24132919311523,0.7140922546386719,-93.64030456542969,1,98.81360412500001,unknown,2,2017-05-14 22:05:03.734,null,0,0,0,0,null,97.00638600000001,0,0.1047363,88.03071,0.0.0.0,0.0.0.0,1,1,0.75,1
2017-05-14 22:05:04.749,55,0211D7EC-4A0C-4BE7-80DD-93957CA4B509,my_iOS_device_1,1494821103.962491,31.74853056206531,-106.4868178871521,1142.932,0,101.6015625,12,10,1494821104.683071,24.1005859375,8.79742431640625,-95.06695556640625,354.384521484375,346.1782531738281,25,99.77828012500001,0.03887939453125,-0.716827392578125,-0.6864471435546875,99.74691912500001,0.2040402174452929,0.09612759849473712,0.07433575024294574,99.74691912500001,-0.02094865233657565,0.09589130246949316,0.7645353559159693,0.21315036714077,0.05068817734718323,0.08539661020040512,-0.04595154896378517,-0.009244795888662338,-0.004527130629867315,XArbitraryCorrectedZVertical,0.3730420800085592,0.0405628783431189,0.008170159252611617,0.9268913139851939,0.06909913569688797,-0.6922017335891724,-0.7183884978294373,34.28929138183594,0.1821403503417969,-93.62529754638672,1,98.81360412500001,unknown,2,2017-05-14 22:05:03.734,null,0,0,0,0,null,97.00638600000001,0,0.1047363,88.03071,0.0.0.0,0.0.0.0,1,1,0.75,1
2017-05-14 22:05:04.775,56,0211D7EC-4A0C-4BE7-80DD-93957CA4B509,my_iOS_device_1,1494821103.962491,31.74853056206531,-106.4868178871521,1142.932,0,101.6015625,12,10,1494821104.744326,24.40847778320312,7.48101806640625,-94.77471923828125,354.0889282226562,345.8826599121094,25,99.83712012500001,0.043182373046875,-0.721710205078125,-0.674285888671875,99.816850125,0.2364793837352211,0.1288216293009859,0.03944274732461855,99.82684212500001,-0.01984490459149775,0.1056150321677698,0.7875343842741614,0.2436234802007675,0.09611938148736954,0.03985616937279701,-0.03071228042244911,-0.02702577598392963,0.01884744688868523,XArbitraryCorrectedZVertical,0.3835999725348975,0.04493953073941929,0.01110008237570932,0.922338488744453,0.07438293844461441,-0.7086157202720642,-0.7016630172729492,35.14275741577148,-2.335697174072266,-93.27923583984375,1,98.81360412500001,unknown,2,2017-05-14 22:05:03.734,null,0,0,0,0,null,97.00638600000001,0,0.1047363,88.03071,0.0.0.0,0.0.0.0,1,1,0.75,1
2017-05-14 22:05:04.832,57,0211D7EC-4A0C-4BE7-80DD-93957CA4B509,my_iOS_device_1,1494821103.962491,31.74853056206531,-106.4868178871521,1142.932,0,101.6015625,12,10,1494821104.802025,24.72976684570312,5.699203491210938,-93.986572265625,353.8625793457031,345.6563110351562,25,99.89596312500001,0.1058197021484375,-0.7115325927734375,-0.61383056640625,99.85181312500001,0.297275889312313,0.2249601467561923,-0.02496234152953072,99.86679012500001,-0.02095597136798631,0.1122243475823217,0.8005560618731008,0.3376123309135437,0.1910090893507004,-0.04456960409879684,-0.01633324846625328,0.00676011573523283,0.03396856784820557,XArbitraryCorrectedZVertical,0.3895809282049774,0.04757020617717753,0.01221844090843851,0.9196817305812802,0.07797875255346298,-0.7177433967590332,-0.6919275522232056,35.46213912963867,-3.251548767089844,-93.13082122802734,1,98.81360412500001,unknown,2,2017-05-14 22:05:03.734,null,0,0,0,0,null,97.00638600000001,0,0.1047363,88.03071,0.0.0.0,0.0.0.0,1,1,0.75,1
2017-05-14 22:05:04.912,58,0211D7EC-4A0C-4BE7-80DD-93957CA4B509,my_iOS_device_1,1494821103.962491,31.74853056206531,-106.4868178871521,1142.932,0,101.6015625,12,10,1494821104.863276,25.33219909667969,3.319046020507812,-93.2113037109375,354.1278991699219,345.921630859375,25,99.95478312500001,0.1830291748046875,-0.8492889404296875,-0.59503173828125,99.92172512500001,0.5117242729298536,0.4812073763147446,-0.0803502332487807,99.90675912500001,-0.02954523224471628,0.1303305627045759,0.816329737466894,0.4363238513469696,0.3738021850585938,-0.09994432330131531,0.03513458371162415,0.007430315017700195,0.07440090179443359,XArbitraryCorrectedZVertical,0.3969228483243599,0.053912188050771,0.01231486085574288,0.9161845188933074,0.08901092410087585,-0.7286369800567627,-0.6790914535522461,36.50671005249023,-4.711650848388672,-92.66361999511719,1,98.81360412500001,unknown,2,2017-05-14 22:05:03.734,null,0,0,0,0,null,97.00638600000001,0,0.1047363,88.03071,0.0.0.0,0.0.0.0,1,1,0.75,1
2017-05-14 22:05:04.951,59,0211D7EC-4A0C-4BE7-80DD-93957CA4B509,my_iOS_device_1,1494821103.962491,31.74853056206531,-106.4868178871521,1142.932,0,101.6015625,12,10,1494821104.921826,26.13543701171875,0.7660064697265625,-92.55023193359375,354.4252319335938,346.2189636230469,25,100.013630125,0.0966949462890625,-0.734100341796875,-0.5594635009765625,99.991675125,0.2385894062668908,0.2705819604420128,0.218026074225953,99.986677125,-0.0304892022836049,0.1563767154698825,0.8519412354231571,0.244543582201004,0.2166937440633774,0.2194461077451706,0.04217105731368065,-0.04220911487936974,0.0679992139339447,XArbitraryCorrectedZVertical,0.4129788751873743,0.06484085222452918,0.018431784582928,0.9082424686441712,0.1025585532188416,-0.7525601983070374,-0.6504881978034973,38.89897537231445,-8.013195037841797,-91.4556884765625,1,98.81360412500001,unknown,2,2017-05-14 22:05:03.734,null,0,0,0,0,null,97.00638600000001,0,0.1047363,88.03071,0.0.0.0,0.0.0.0,1,1,0.75,1
2017-05-14 22:05:05.007,60,0211D7EC-4A0C-4BE7-80DD-93957CA4B509,my_iOS_device_1,1494821104.965911,31.74856195229268,-106.4868359920629,1141.246,0.31,101.6015625,12,10,1494821104.980315,27.21981811523438,-2.066268920898438,-91.44427490234375,353.3065185546875,345.1002502441406,25,100.072451125,0.0101165771484375,-0.7371826171875,-0.5058441162109375,100.061601125,0.4708202491151085,0.1289156388874657,0.4798116135874341,100.026638125,-0.01895536475789169,0.1570250833773816,0.8683754747404546,0.4253238141536713,0.1868669539690018,0.2911601364612579,-0.01109709125012159,0.03784704208374023,0.08370587974786758,XArbitraryCorrectedZVertical,0.4200332823302479,0.06717650322524889,0.0244211015734386,0.9046894323176589,0.1010323911905289,-0.7632803916931152,-0.6381187438964844,39.75666809082031,-9.765216827392578,-90.91497802734375,1,98.81360412500001,unknown,2,2017-05-14 22:05:03.734,null,0,0,0,0,null,97.00638600000001,0,0.1047363,88.03071,0.0.0.0,0.0.0.0,1,1,0.75,1
