loggingTime(txt),loggingSample(N),identifierForVendor(txt),deviceID(txt),locationTimestamp_since1970(s),locationLatitude,locationLongitude,locationAltitude(m),locationSpeed,locationCourse(°),locationVerticalAccuracy(m),locationHorizontalAccuracy(m),locationFloor(Z),locationHeadingTimestamp_since1970(s),locationHeadingX(µT),locationHeadingY(µT),locationHeadingZ(µT),locationTrueHeading(°),locationMagneticHeading(°),locationHeadingAccuracy(°),accelerometerTimestamp_sinceReboot(s),accelerometerAccelerationX(G),accelerometerAccelerationY(G),accelerometerAccelerationZ(G),gyroTimestamp_sinceReboot(s),gyroRotationX(rad/s),gyroRotationY(rad/s),gyroRotationZ(rad/s),motionTimestamp_sinceReboot(s),motionYaw(rad),motionRoll(rad),motionPitch(rad),motionRotationRateX(rad/s),motionRotationRateY(rad/s),motionRotationRateZ(rad/s),motionUserAccelerationX(G),motionUserAccelerationY(G),motionUserAccelerationZ(G),motionAttitudeReferenceFrame(txt),motionQuaternionX(R),motionQuaternionY(R),motionQuaternionZ(R),motionQuaternionW(R),motionGravityX(G),motionGravityY(G),motionGravityZ(G),motionMagneticFieldX(µT),motionMagneticFieldY(µT),motionMagneticFieldZ(µT),motionMagneticFieldCalibrationAccuracy(Z),activityTimestamp_sinceReboot(s),activity(txt),activityActivityConfidence(Z),activityActivityStartDate(txt),pedometerStartDate(txt),pedometerNumberofSteps(N),pedometerDistance(m),pedometerFloorAscended(N),pedometerFloorDescended(N),pedometerEndDate(txt),altimeterTimestamp_sinceReboot(s),altimeterReset(bool),altimeterRelativeAltitude(m),altimeterPressure(kPa),IP_en0(txt),IP_pdp_ip0(txt),deviceOrientation(Z),batteryState(R),batteryLevel(Z),state(N)
2017-12-07 21:15:23.415 -0700,1,DC177AC5-2AD5-4A81-A6C2-D7075E6B0E09,my_iOS_device,1512706522.32914,31.7603107402397,-106.452180929581,1142.262,13.45,7.3828125,64,30,-9999,1512706522.93357,-2.58310317993164,-10.4573059082031,-74.2760620117187,19.0134620666504,10.8754234313965,25,406109.905264875,0.244400024414062,-0.536972045898438,-0.755447387695313,406109.881401875,0.13301104801179,0.154044960617344,-0.120281138001211,406109.881401875,0.000450593159828,0.234577066022412,0.529311567307152,0.134655147790909,0.109672799706459,-0.105481706559658,-0.030290653929114,0.010676519013941,-0.032631155103445,XArbitraryCorrectedZVertical,0.259754449129105,0.113003998994827,0.030825650319457,0.958544492721558,0.200624525547028,-0.504939258098602,-0.839515447616577,10.3597221374512,-11.6134128570557,-74.10107421875,1,406108.423058875,cycling,2,2017-12-07 21:15:21.834 -0700,null,0,0,0,0,null,406108.016781,0,-0.05810547,89.83086,0.0.0.0,26.252.40.116,1,2,0.18,0
2017-12-07 21:15:23.421 -0700,2,DC177AC5-2AD5-4A81-A6C2-D7075E6B0E09,my_iOS_device,1512706522.32914,31.7603107402397,-106.452180929581,1142.262,13.45,7.3828125,64,30,-9999,1512706522.93357,-2.58310317993164,-10.4573059082031,-74.2760620117187,19.0134620666504,10.8754234313965,25,406110.003346875,0.122711181640625,-0.496231079101563,-0.827926635742188,406109.981251875,-0.067719392830753,-0.63946918620212,-0.14081464263794,406109.981251875,-0.014650574615851,0.152901128562969,0.541574630628815,-0.066067449748516,-0.683843851089478,-0.126012295484543,-0.049257710576058,0.005628758110106,0.011405938304961,XArbitraryCorrectedZVertical,0.267240762710571,0.071637339890003,0.013391632586718,0.96086996793747,0.13051076233387,-0.515485942363739,-0.846900939941406,18.1423263549805,-6.93144607543945,-79.2227325439453,1,406108.423058875,cycling,2,2017-12-07 21:15:21.834 -0700,null,0,0,0,0,null,406108.016781,0,-0.05810547,89.83086,0.0.0.0,26.252.40.116,1,2,0.18,0
2017-12-07 21:15:23.516 -0700,3,DC177AC5-2AD5-4A81-A6C2-D7075E6B0E09,my_iOS_device,1512706523.32437,31.7603892367629,-106.452112365613,1132.304,14.82,15.1171875,12,5,-9999,1512706523.44332,15.1683692932129,-9.28717041015625,-76.5892944335937,355.875518798828,347.737487792969,25,406110.101462875,0.093414306640625,-0.531753540039063,-0.918182373046875,406110.081145875,0.227182821001972,-0.627931839727679,0.17197549160463,406110.081145875,-0.016829260105742,0.099471244715634,0.548867136347217,0.228801891207695,-0.67229950428009,0.186769500374794,0.038387265056372,0.006401268299669,-0.033928759396076,XArbitraryCorrectedZVertical,0.271059721708298,0.045575495809317,0.005382773000747,0.961467921733856,0.084720648825169,-0.521721124649048,-0.848899006843567,13.5047941207886,-7.32319450378418,-80.1088104248047,1,406108.423058875,cycling,2,2017-12-07 21:15:21.834 -0700,null,0,0,0,0,null,406108.016781,0,-0.05810547,89.83086,0.0.0.0,26.252.40.116,1,2,0.18,0
2017-12-07 21:15:23.635 -0700,4,DC177AC5-2AD5-4A81-A6C2-D7075E6B0E09,my_iOS_device,1512706523.32437,31.7603892367629,-106.452112365613,1132.304,14.82,15.1171875,12,5,-9999,1512706523.5634,4.75310134887695,-9.89884948730469,-74.631591796875,2.23130130767822,354.09326171875,25,406110.199562875,-0.055953979492188,-0.534164428710938,-0.864212036132813,406110.181016875,0.550882594650052,-1.03262846213721,0.160602728485555,406110.181016875,-0.003486946968665,0.003441035745803,0.570543484333164,0.552500486373901,-1.07699489593506,0.175396114587784,0.031039550900459,0.01509562600404,-0.103099554777145,XArbitraryCorrectedZVertical,0.281420260667801,0.001160335959867,-0.001188823953271,0.959583163261414,0.002895995974541,-0.540089547634125,-0.841602563858032,7.25300550460815,-8.65186882019043,-80.7834701538086,1,406108.423058875,cycling,2,2017-12-07 21:15:21.834 -0700,null,0,0,0,0,null,406108.016781,0,-0.05810547,89.83086,0.0.0.0,26.252.40.116,1,2,0.18,0
2017-12-07 21:15:23.714 -0700,5,DC177AC5-2AD5-4A81-A6C2-D7075E6B0E09,my_iOS_device,1512706523.32437,31.7603892367629,-106.452112365613,1132.304,14.82,15.1171875,12,5,-9999,1512706523.68984,-6.65283203125,-14.8188018798828,-71.6064453125,7.91993045806885,359.781890869141,25,406110.297668875,-0.13812255859375,-0.575332641601563,-0.778152465820313,406110.280887875,0.384606001462082,-0.278670246988692,-0.244317599455542,406110.280887875,0.003410673812867,-0.059996143904061,0.626226633181764,0.386223167181015,-0.323036879301071,-0.229523956775665,-0.114289909601211,-0.061705071479082,0.041468288749457,XArbitraryCorrectedZVertical,0.307931691408157,-0.028010174632073,-0.007616976741701,0.950965583324432,-0.048582408577204,-0.586091578006744,-0.808786988258362,1.22688126564026,-13.607307434082,-80.4162063598633,1,406108.423058875,cycling,2,2017-12-07 21:15:21.834 -0700,null,0,0,0,0,null,406108.016781,0,-0.05810547,89.83086,0.0.0.0,26.252.40.116,1,2,0.18,0
2017-12-07 21:15:23.815 -0700,6,DC177AC5-2AD5-4A81-A6C2-D7075E6B0E09,my_iOS_device,1512706523.32437,31.7603892367629,-106.452112365613,1132.304,14.82,15.1171875,12,5,-9999,1512706523.68984,-6.65283203125,-14.8188018798828,-71.6064453125,7.91993045806885,359.781890869141,25,406110.395761875,-0.007278442382813,-0.540252685546875,-0.82147216796875,406110.380739875,-0.077425017107438,0.086525837500566,-0.160444803032914,406110.380739875,-0.012644692659072,-0.048550358685441,0.627697977611901,-0.075815819203854,0.042129930108786,-0.145632654428482,0.043262876570225,0.020266510546208,-0.030851317569614,XArbitraryCorrectedZVertical,0.308478802442551,-0.025037923827767,-0.013505096547306,0.950805723667145,-0.039280328899622,-0.587283074855804,-0.80842787027359,-10.3477058410645,-19.1269092559814,-70.33544921875,1,406108.423058875,cycling,2,2017-12-07 21:15:21.834 -0700,null,0,0,0,0,null,406108.016781,0,-0.05810547,89.83086,0.0.0.0,26.252.40.116,1,2,0.18,0
2017-12-07 21:15:23.912 -0700,7,DC177AC5-2AD5-4A81-A6C2-D7075E6B0E09,my_iOS_device,1512706523.32437,31.7603892367629,-106.452112365613,1132.304,14.82,15.1171875,12,5,-9999,1512706523.81104,-10.3477058410645,-18.9940948486328,-70.309814453125,14.9468421936035,6.80880260467529,25,406110.493844875,0.023223876953125,-0.546890258789063,-0.758346557617188,406110.480631875,0.753284169076619,0.340137602844375,-0.328604251111569,406110.480631875,-0.029684950866293,-0.033726703657726,0.668269788619275,0.754839539527893,0.295742332935333,-0.313797444105148,0.008812478743494,0.00282284989953,0.01734346523881,XArbitraryCorrectedZVertical,0.32763284444809,-0.02079495228827,-0.019548593088985,0.944373965263367,-0.026466900482774,-0.61962890625,-0.784448564052582,-9.95557403564453,-21.5077819824219,-69.7014465332031,1,406108.423058875,cycling,2,2017-12-07 21:15:21.834 -0700,null,0,0,0,0,null,406108.016781,0,-0.05810547,89.83086,0.0.0.0,26.252.40.116,1,2,0.18,0
2017-12-07 21:15:24.008 -0700,8,DC177AC5-2AD5-4A81-A6C2-D7075E6B0E09,my_iOS_device,1512706523.32437,31.7603892367629,-106.452112365613,1132.304,14.82,15.1171875,12,5,-9999,1512706523.92583,-9.22317886352539,-22.5045318603516,-70.9708862304688,20.0204124450684,11.8823719024658,25,406110.591956875,0.175628662109375,-0.53814697265625,-0.604385375976563,406110.580495875,-0.523767087379192,-0.337648346173478,-0.248077716598625,406110.580495875,-0.114126317859291,0.049414739669459,0.678733363337147,-0.522113859653473,-0.382060766220093,-0.233353465795517,0.201100498437881,0.110412620007992,0.176161080598831,XArbitraryCorrectedZVertical,0.333575308322906,0.004278262611479,-0.045552376657724,0.941612541675568,0.038447227329016,-0.6278076171875,-0.777418434619904,-5.96707534790039,-23.5150299072266,-69.5084686279297,1,406108.423058875,cycling,2,2017-12-07 21:15:21.834 -0700,null,0,0,0,0,null,406108.016781,0,-0.05810547,89.83086,0.0.0.0,26.252.40.116,1,2,0.18,0
2017-12-07 21:15:24.101 -0700,9,DC177AC5-2AD5-4A81-A6C2-D7075E6B0E09,my_iOS_device,1512706523.32437,31.7603892367629,-106.452112365613,1132.304,14.82,15.1171875,12,5,-9999,1512706524.04603,-5.71571922302246,-26.2808837890625,-71.98779296875,24.946475982666,16.8084354400635,25,406110.690058875,0.008163452148438,-0.324905395507812,-0.8739013671875,406110.680361875,-2.14390939232827,0.078370971926634,0.537969991788693,406110.680361875,-0.056611113061127,-0.062650151734393,0.55132509204307,-2.14225625991821,0.033959455788136,0.552693963050842,0.103472828865051,0.180890396237373,0.152039870619774,XArbitraryCorrectedZVertical,0.27108907699585,-0.037824925035238,-0.035741277039051,0.961146473884582,-0.053332448005676,-0.523816466331482,-0.850160002708435,-12.487829208374,-14.7277698516846,-71.0432052612305,1,406108.423058875,cycling,2,2017-12-07 21:15:21.834 -0700,null,0,0,0,0,null,406109.02618,0,-0.06079102,89.8309,0.0.0.0,26.252.40.116,1,2,0.18,0
2017-12-07 21:15:24.197 -0700,10,DC177AC5-2AD5-4A81-A6C2-D7075E6B0E09,my_iOS_device,1512706523.32437,31.7603892367629,-106.452112365613,1132.304,14.82,15.1171875,12,5,-9999,1512706524.16626,-7.34896850585938,-2.69187927246094,-69.2168579101562,18.7385387420654,10.6004991531372,25,406110.788135875,-0.059616088867188,-0.411590576171875,-0.966064453125,406110.780220875,-0.004451740078176,-0.132404646231578,0.800024244104164,406110.780220875,0.021131560178981,-0.021122093247286,0.448245711422627,-0.002798604080454,-0.176815360784531,0.814747869968414,0.021475406363607,0.011372891254723,-0.177681833505631,XArbitraryCorrectedZVertical,0.222335234284401,-0.007948059588671,0.007953726686537,0.974905431270599,-0.019034000113607,-0.433385223150253,-0.901007771492004,-7.35659313201904,-6.09983825683594,-72.9976806640625,1,406108.423058875,cycling,2,2017-12-07 21:15:21.834 -0700,null,0,0,0,0,null,406109.02618,0,-0.06079102,89.8309,0.0.0.0,26.252.40.116,1,2,0.18,0
2017-12-07 21:15:24.311 -0700,11,DC177AC5-2AD5-4A81-A6C2-D7075E6B0E09,my_iOS_device,1512706523.32437,31.7603892367629,-106.452112365613,1132.304,14.82,15.1171875,12,5,-9999,1512706524.28714,5.26181411743164,13.9295196533203,-66.5982055664063,359.904663085937,351.766632080078,25,406110.886254875,-0.386322021484375,-0.729415893554688,-1.11335754394531,406110.780220875,-0.004451740078176,-0.132404646231578,0.800024244104164,406110.780220875,0.021131560178981,-0.021122093247286,0.448245711422627,-0.002798604080454,-0.176815360784531,0.814747869968414,0.021475406363607,0.011372891254723,-0.177681833505631,XArbitraryCorrectedZVertical,0.222335234284401,-0.007948059588671,0.007953726686537,0.974905431270599,-0.019034000113607,-0.433385223150253,-0.901007771492004,-7.35659313201904,-6.09983825683594,-72.9976806640625,1,406108.423058875,cycling,2,2017-12-07 21:15:21.834 -0700,null,0,0,0,0,null,406109.02618,0,-0.06079102,89.8309,0.0.0.0,26.252.40.116,1,2,0.18,0
2017-12-07 21:15:24.408 -0700,12,DC177AC5-2AD5-4A81-A6C2-D7075E6B0E09,my_iOS_device,1512706523.32437,31.7603892367629,-106.452112365613,1132.304,14.82,15.1171875,12,5,-9999,1512706524.28714,5.26181411743164,13.9295196533203,-66.5982055664063,359.904663085937,351.766632080078,25,406110.984359875,0.1328125,-0.419830322265625,-0.68408203125,406110.880120875,0.156904662995871,1.96833996483258,0.549213857911008,406110.880120875,0.086321229089508,-0.003152708215324,0.419687660766114,0.158554494380951,1.92392706871033,0.563938975334168,-0.383442908525467,-0.321940660476685,-0.200145825743675,XArbitraryCorrectedZVertical,0.208179429173469,0.007447524461895,0.041872601956129,0.977165579795837,-0.002879099687561,-0.407475233078003,-0.913211703300476,-5.20740699768066,-3.53267288208008,-73.3511581420899,1,406108.423058875,cycling,2,2017-12-07 21:15:21.834 -0700,null,0,0,0,0,null,406109.02618,0,-0.06079102,89.8309,0.0.0.0,26.252.40.116,1,2,0.18,0
2017-12-07 21:15:24.502 -0700,13,DC177AC5-2AD5-4A81-A6C2-D7075E6B0E09,my_iOS_device,1512706524.29371,31.7605184018908,-106.452094847436,1130.286,15.12,13.359375,12,5,-9999,1512706524.28714,5.26181411743164,13.9295196533203,-66.5982055664063,359.904663085937,351.766632080078,25,406111.082458875,-0.030532836914063,-0.54473876953125,-0.917922973632812,406110.979992875,1.31857313364345,-0.306749285941943,0.585416070821218,406110.979992875,0.094123483489834,0.045127067176078,0.528781516475289,1.32022297382355,-0.351161271333694,0.600140929222107,0.093861997127533,0.084651336073876,0.178461372852325,XArbitraryCorrectedZVertical,0.259940952062607,0.034044098109007,0.051287412643433,0.963660359382629,0.038950499147177,-0.504481673240662,-0.862543404102325,-0.632544040679932,-11.0428504943848,-72.7849197387695,1,406108.423058875,cycling,2,2017-12-07 21:15:21.834 -0700,null,0,0,0,0,null,406109.02618,0,-0.06079102,89.8309,0.0.0.0,26.252.40.116,1,2,0.18,0
2017-12-07 21:15:24.590 -0700,14,DC177AC5-2AD5-4A81-A6C2-D7075E6B0E09,my_iOS_device,1512706524.29371,31.7605184018908,-106.452094847436,1130.286,15.12,13.359375,12,5,-9999,1512706524.52747,18.2340469360352,-0.338272094726562,-67.907470703125,352.656890869141,344.518859863281,25,406111.180534875,0.043472290039063,-0.598876953125,-0.933319091796875,406111.079863875,-0.080836792779938,0.148001715471737,-0.978844592342515,406111.079863875,0.092090187096075,0.047468491449672,0.556795811482723,-0.079187028110027,0.103590562939644,-0.964120030403137,-0.070816211402416,-0.016270076856017,-0.069926455616951,XArbitraryCorrectedZVertical,0.273396700620651,0.03543995320797,0.050759125500918,0.959907174110413,0.040283374488354,-0.528468728065491,-0.847996532917023,-0.912429332733154,-13.6179885864258,-72.344367980957,1,406108.423058875,cycling,2,2017-12-07 21:15:21.834 -0700,null,0,0,0,0,null,406109.02618,0,-0.06079102,89.8309,0.0.0.0,26.252.40.116,1,2,0.18,0
2017-12-07 21:15:24.706 -0700,15,DC177AC5-2AD5-4A81-A6C2-D7075E6B0E09,my_iOS_device,1512706524.29371,31.7605184018908,-106.452094847436,1130.286,15.12,13.359375,12,5,-9999,1512706524.66043,18.8632469177246,-0.112213134765625,-68.5303955078125,355.480712890625,347.342681884766,25,406111.278668875,0.183273315429688,-0.512237548828125,-0.731048583984375,406111.179707875,-0.341450807577893,0.184580499360084,-0.14084127424884,406111.179707875,0.037649929036581,0.081896485931187,0.549290400553502,-0.339801073074341,0.140170231461525,-0.126117005944252,-0.026298774406314,-0.076794810593128,-0.083282485604286,XArbitraryCorrectedZVertical,0.270188391208649,0.044496420770884,0.029203491285443,0.961335241794586,0.069771066308022,-0.522082149982452,-0.85003662109375,0.293952941894531,-13.3620719909668,-72.3972244262695,1,406108.423058875,cycling,2,2017-12-07 21:15:21.834 -0700,null,0,0,0,0,null,406109.02618,0,-0.06079102,89.8309,0.0.0.0,26.252.40.116,1,2,0.18,0
2017-12-07 21:15:24.902 -0700,16,DC177AC5-2AD5-4A81-A6C2-D7075E6B0E09,my_iOS_device,1512706524.29371,31.7605184018908,-106.452094847436,1130.286,15.12,13.359375,12,5,-9999,1512706524.77146,17.3906555175781,-1.38870239257813,-67.9200439453125,354.414337158203,346.276306152344,25,406111.376765875,-0.088455200195313,-0.622390747070313,-0.843460083007813,406111.279609875,0.087835580124666,-0.298735834221894,0.316875955986969,406111.279609875,0.025490106584793,0.079747131785069,0.556850942237124,0.08948528021574,-0.343145161867142,0.331599920988083,0.115645825862884,0.016277940943837,0.115177094936371,XArbitraryCorrectedZVertical,0.274112850427628,0.041824735701084,0.023199301213026,0.96050751209259,0.067627489566803,-0.528515517711639,-0.846225678920746,0.013410091400147,-13.8115158081055,-72.3134231567383,1,406108.423058875,cycling,2,2017-12-07 21:15:21.834 -0700,null,0,0,0,0,null,406109.02618,0,-0.06079102,89.8309,0.0.0.0,26.252.40.116,1,2,0.18,0
2017-12-07 21:15:24.910 -0700,17,DC177AC5-2AD5-4A81-A6C2-D7075E6B0E09,my_iOS_device,1512706524.29371,31.7605184018908,-106.452094847436,1130.286,15.12,13.359375,12,5,-9999,1512706524.77146,17.3906555175781,-1.38870239257813,-67.9200439453125,354.414337158203,346.276306152344,25,406111.474845875,0.0732421875,-0.517135620117188,-0.765579223632813,406111.379461875,0.370627068900256,-0.294955477054527,0.126915338592707,406111.379461875,0.059253161184684,0.039647898873559,0.572605836555448,0.372282922267914,-0.339395672082901,0.141658961772919,-0.121770210564136,-0.080566704273224,-0.003628660924733,XArbitraryCorrectedZVertical,0.281664878129959,0.027371317148209,0.034006483852863,0.958519339561462,0.033315010368824,-0.541824042797089,-0.839831411838532,-1.88995432853699,-14.5672264099121,-72.1402359008789,1,406108.423058875,cycling,2,2017-12-07 21:15:21.834 -0700,null,0,0,0,0,null,406109.02618,0,-0.06079102,89.8309,0.0.0.0,26.252.40.116,1,2,0.18,0
2017-12-07 21:15:24.983 -0700,18,DC177AC5-2AD5-4A81-A6C2-D7075E6B0E09,my_iOS_device,1512706524.29371,31.7605184018908,-106.452094847436,1130.286,15.12,13.359375,12,5,-9999,1512706524.89169,15.3959617614746,-3.875244140625,-67.7039794921875,354.115875244141,345.977844238281,25,406111.572944875,0.030853271484375,-0.560394287109375,-0.851287841796875,406111.479351875,-0.169067586010372,0.122856947407535,0.050258110827539,406111.479351875,0.056263564133487,0.026091149127922,0.580802969726427,-0.167411774396896,0.078417666256428,0.065001428127289,0.051431879401207,0.03155979514122,0.070158563554287,XArbitraryCorrectedZVertical,0.285847693681717,0.020547462627292,0.030681872740388,0.95756334066391,0.021810308098793,-0.548695385456085,-0.835737824440002,-3.2323637008667,-15.5360527038574,-71.8899993896484,1,406108.423058875,cycling,2,2017-12-07 21:15:21.834 -0700,null,0,0,0,0,null,406109.02618,0,-0.06079102,89.8309,0.0.0.0,26.252.40.116,1,2,0.18,0
2017-12-07 21:15:25.081 -0700,19,DC177AC5-2AD5-4A81-A6C2-D7075E6B0E09,my_iOS_device,1512706524.29371,31.7605184018908,-106.452094847436,1130.286,15.12,13.359375,12,5,-9999,1512706525.00901,15.5565948486328,-3.130615234375,-67.2719116210938,353.187774658203,345.049743652344,25,406111.671038875,0.030532836914063,-0.549453735351563,-0.8038330078125,406111.579225875,0.089610843307313,-0.079094819110917,0.091187967304858,406111.579225875,0.066124639487217,0.027525369370217,0.570336581257495,0.091362476348877,-0.123535059392452,0.105840668082237,-0.007662779185921,-0.004426652099937,0.001205750973895,XArbitraryCorrectedZVertical,0.280702024698257,0.022497717291117,0.035587757825852,0.958871066570282,0.02316570840776,-0.539915382862091,-0.841400444507599,-2.78305268287659,-14.5996952056885,-72.104736328125,1,406108.423058875,cycling,2,2017-12-07 21:15:21.834 -0700,null,0,0,0,0,null,406110.036007,0,-0.1479492,89.83184,0.0.0.0,26.252.40.116,1,2,0.18,0
2017-12-07 21:15:25.195 -0700,20,DC177AC5-2AD5-4A81-A6C2-D7075E6B0E09,my_iOS_device,1512706524.29371,31.7605184018908,-106.452094847436,1130.286,15.12,13.359375,12,5,-9999,1512706525.13136,15.195125579834,-3.11735534667969,-67.157470703125,352.331787109375,344.193756103516,25,406111.769126875,0.060317993164063,-0.528518676757813,-0.895980834960938,406111.679080875,-0.161988104884615,0.180099198193808,0.002429069230261,406111.679080875,0.075987551648936,0.023700909850487,0.585678605374851,-0.1601722240448,0.13567516207695,0.017074590548873,0.010783838108182,0.003311266424134,0.029270125553012,XArbitraryCorrectedZVertical,0.288012266159058,0.022301828488708,0.039783347398043,0.956540048122406,0.019749000668526,-0.552765011787415,-0.833103120326996,-3.04718351364136,-15.8515243530273,-71.8292007446289,1,406108.423058875,cycling,2,2017-12-07 21:15:21.834 -0700,null,0,0,0,0,null,406110.036007,0,-0.1479492,89.83184,0.0.0.0,26.252.40.116,1,2,0.18,0
2017-12-07 21:15:25.289 -0700,21,DC177AC5-2AD5-4A81-A6C2-D7075E6B0E09,my_iOS_device,1512706524.29371,31.7605184018908,-106.452094847436,1130.286,15.12,13.359375,12,5,-9999,1512706525.13136,15.195125579834,-3.11735534667969,-67.157470703125,352.331787109375,344.193756103516,25,406111.867205875,-0.070220947265625,-0.6153564453125,-0.770736694335938,406111.778951875,0.03864779373923,-0.018174210227028,-0.063785371268488,406111.778951875,0.067314592126917,0.042684135999319,0.571913389536222,0.040423411875963,-0.062566637992859,-0.049162689596415,0.053657796233893,0.029752060770989,-0.037447188049555,XArbitraryCorrectedZVertical,0.28116250038147,0.029952205717564,0.038293305784464,0.958427965641022,0.035880781710148,-0.541241943836212,-0.840101003646851,-1.81798362731934,-14.9550533294678,-72.0626831054688,1,406108.423058875,cycling,2,2017-12-07 21:15:21.834 -0700,null,0,0,0,0,null,406110.036007,0,-0.1479492,89.83184,0.0.0.0,26.252.40.116,1,2,0.18,0
2017-12-07 21:15:25.506 -0700,22,DC177AC5-2AD5-4A81-A6C2-D7075E6B0E09,my_iOS_device,1512706524.29371,31.7605184018908,-106.452094847436,1130.286,15.12,13.359375,12,5,-9999,1512706525.25148,15.5699729919434,-2.7449951171875,-67.4878540039063,351.902374267578,343.764343261719,25,406111.965302875,0.177703857421875,-0.500198364257813,-0.869155883789063,406111.878843875,-0.030817833818288,0.107321130872449,-0.075736839292437,406111.878843875,0.087703482749069,0.012945955827267,0.590556263463466,-0.029004912823439,0.062915101647377,-0.061102721840143,-0.069011069834232,-0.018753603100777,0.043268967419863,XArbitraryCorrectedZVertical,0.290448635816574,0.018943600356579,0.043821420520544,0.955698907375336,0.010753012262285,-0.556823134422302,-0.830561459064483,-3.34275221824646,-16.0118045806885,-71.7804794311523,1,406108.423058875,cycling,2,2017-12-07 21:15:21.834 -0700,null,0,0,0,0,null,406110.036007,0,-0.1479492,89.83184,0.0.0.0,26.252.40.116,1,2,0.18,0
2017-12-07 21:15:25.535 -0700,23,DC177AC5-2AD5-4A81-A6C2-D7075E6B0E09,my_iOS_device,1512706524.29371,31.7605184018908,-106.452094847436,1130.286,15.12,13.359375,12,5,-9999,1512706525.25148,15.5699729919434,-2.7449951171875,-67.4878540039063,351.902374267578,343.764343261719,25,406112.063400875,-0.03656005859375,-0.527008056640625,-0.718231201171875,406111.978714875,0.251973654957302,-0.283686310901857,0.179411570000349,406111.978714875,0.073197916428533,0.033576469649135,0.576258524147878,0.253760755062103,-0.328058332204819,0.194021180272102,0.149555027484894,0.044692136347294,-0.031121285632253,XArbitraryCorrectedZVertical,0.283339858055115,0.026480782777071,0.039844579994679,0.957825481891632,0.028148822486401,-0.544890522956848,-0.838034570217133,-1.89547324180603,-14.7984371185303,-72.093017578125,1,406108.423058875,cycling,2,2017-12-07 21:15:21.834 -0700,null,0,0,0,0,null,406110.036007,0,-0.1479492,89.83184,0.0.0.0,26.252.40.116,1,2,0.18,0
2017-12-07 21:15:25.616 -0700,24,DC177AC5-2AD5-4A81-A6C2-D7075E6B0E09,my_iOS_device,1512706524.29371,31.7605184018908,-106.452094847436,1130.286,15.12,13.359375,12,5,-9999,1512706525.37759,15.7038307189941,-2.90457153320312,-67.48779296875,350.758758544922,342.620727539063,25,406112.161494875,0.055694580078125,-0.478469848632813,-0.880035400390625,406112.078572875,0.171684940729702,-0.124061761484687,0.050073287447888,406112.078572875,0.097167004475661,0.001105788130338,0.593722174828732,0.173472002148628,-0.168432861566544,0.064682587981224,-0.005448408424854,0.001603990211152,0.126852452754974,XArbitraryCorrectedZVertical,0.292149156332016,0.014734141528607,0.046601690351963,0.95512306690216,0.000916547840461,-0.559450089931488,-0.828863561153412,-3.79344129562378,-16.0794734954834,-71.7429428100586,1,406108.423058875,cycling,2,2017-12-07 21:15:21.834 -0700,null,0,0,0,0,null,406110.036007,0,-0.1479492,89.83184,0.0.0.0,26.252.40.116,1,2,0.18,0
2017-12-07 21:15:25.758 -0700,25,DC177AC5-2AD5-4A81-A6C2-D7075E6B0E09,my_iOS_device,1512706524.29371,31.7605184018908,-106.452094847436,1130.286,15.12,13.359375,12,5,-9999,1512706525.59186,15.3557624816895,-3.96835327148437,-66.59814453125,347.184173583984,339.046142578125,25,406112.259567875,0.005691528320313,-0.550277709960938,-0.838958740234375,406112.178439875,-0.207541209014311,0.18915847327393,-0.229468079533369,406112.178439875,0.084827327727867,0.021538126774605,0.572735116889089,-0.205754175782204,0.144788309931755,-0.214859083294868,0.087994642555714,0.051576264202595,-0.049909763038159,XArbitraryCorrectedZVertical,0.281761169433594,0.02229730039835,0.043711002916098,0.958229005336762,0.018099714070559,-0.541932702064514,-0.840226948261261,-2.83723473548889,-14.8029327392578,-72.0611724853516,1,406108.423058875,cycling,2,2017-12-07 21:15:21.834 -0700,null,0,0,0,0,null,406110.036007,0,-0.1479492,89.83184,0.0.0.0,26.252.40.116,1,2,0.18,0
2017-12-07 21:15:25.775 -0700,26,DC177AC5-2AD5-4A81-A6C2-D7075E6B0E09,my_iOS_device,1512706524.29371,31.7605184018908,-106.452094847436,1130.286,15.12,13.359375,12,5,-9999,1512706525.59186,15.3557624816895,-3.96835327148437,-66.59814453125,347.184173583984,339.046142578125,25,406112.357673875,0.025299072265625,-0.556381225585938,-0.876708984375,406112.278333875,0.271297551826917,-0.294121907633332,-0.040307742046676,406112.278333875,0.076683545110222,0.019103774453838,0.572197605379056,0.273021727800369,-0.3384610414505,-0.0257239472121,-0.100364625453949,-0.018684497103095,0.024687446653843,XArbitraryCorrectedZVertical,0.281640231609344,0.019974105060101,0.039466205984354,0.95849996805191,0.016059815883637,-0.541480898857117,-0.840559601783752,-2.84009909629822,-14.4147052764893,-72.1397247314453,1,406108.423058875,cycling,2,2017-12-07 21:15:21.834 -0700,null,0,0,0,0,null,406110.036007,0,-0.1479492,89.83184,0.0.0.0,26.252.40.116,1,2,0.18,0
2017-12-07 21:15:25.905 -0700,27,DC177AC5-2AD5-4A81-A6C2-D7075E6B0E09,my_iOS_device,1512706525.42036,31.7606230080424,-106.452065175498,1135.125,14.69,13.359375,8,5,-9999,1512706525.73325,15.4494743347168,-3.10400390625,-66.7886352539063,348.929595947266,340.791564941406,25,406112.455744875,0.146881103515625,-0.579483032226563,-0.81646728515625,406112.378194875,-0.029378128932991,-0.277734944813857,-0.614531079438509,406112.378194875,0.022612903237549,0.031697489912932,0.575128283886579,-0.027619611471891,-0.322121918201446,-0.599915325641632,0.089129030704498,-0.037631060928106,-0.011015157215297,XArbitraryCorrectedZVertical,0.283391654491425,0.018402582034469,0.015335089527071,0.958705067634582,0.026593623682857,-0.543942451477051,-0.838701009750366,-3.57630920410156,-15.1719264984131,-71.9514617919922,1,406108.423058875,cycling,2,2017-12-07 21:15:21.834 -0700,null,0,0,0,0,null,406110.036007,0,-0.1479492,89.83184,0.0.0.0,26.252.40.116,1,2,0.18,0
2017-12-07 21:15:26.082 -0700,28,DC177AC5-2AD5-4A81-A6C2-D7075E6B0E09,my_iOS_device,1512706525.42036,31.7606230080424,-106.452065175498,1135.125,14.69,13.359375,8,5,-9999,1512706525.73325,15.4494743347168,-3.10400390625,-66.7886352539063,348.929595947266,340.791564941406,25,406112.55377025,-0.038330078125,-0.593994140625,-0.724700927734375,406112.478071875,-0.054972971221416,0.029842584227101,0.134125314611879,406112.478071875,-0.00687461931403,0.022562765911254,0.567942980922838,-0.053214490413666,-0.014543454162777,0.148740768432617,0.038643956184387,-0.043735437095165,-0.006463755853474,XArbitraryCorrectedZVertical,0.280188024044037,0.009866304695606,-0.000138807459734,0.959894418716431,0.019019005820155,-0.537899076938629,-0.84279465675354,8.99003124237061,-4.57008171081543,-67.6683197021484,1,406108.423058875,cycling,2,2017-12-07 21:15:21.834 -0700,null,0,0,0,0,null,406110.036007,0,-0.1479492,89.83184,0.0.0.0,26.252.40.116,1,2,0.18,0
2017-12-07 21:15:26.110 -0700,29,DC177AC5-2AD5-4A81-A6C2-D7075E6B0E09,my_iOS_device,1512706525.42036,31.7606230080424,-106.452065175498,1135.125,14.69,13.359375,8,5,-9999,1512706525.73325,15.4494743347168,-3.10400390625,-66.7886352539063,348.929595947266,340.791564941406,25,406112.65185425,0.01971435546875,-0.531219482421875,-0.853286743164063,406112.57785725,-0.291604954087098,0.182086981631443,-0.091383177012761,406112.57785725,0.001900143012222,0.018377503989245,0.564358330255507,-0.289753943681717,0.137698590755463,-0.07685499638319,0.011313342489302,0.011573602445424,0.023042475804687,XArbitraryCorrectedZVertical,0.27842903137207,0.009089753031731,0.003471022937447,0.960407495498657,0.015526866540313,-0.534873783588409,-0.844789326190949,8.63103008270264,-4.8922061920166,-67.6925354003906,1,406108.423058875,cycling,2,2017-12-07 21:15:21.834 -0700,null,0,0,0,0,null,406111.045573,0,-0.2642212,89.83311,0.0.0.0,26.252.40.116,1,2,0.18,0
2017-12-07 21:15:26.168 -0700,30,DC177AC5-2AD5-4A81-A6C2-D7075E6B0E09,my_iOS_device,1512706525.42036,31.7606230080424,-106.452065175498,1135.125,14.69,13.359375,8,5,-9999,1512706525.73325,15.4494743347168,-3.10400390625,-66.7886352539063,348.929595947266,340.791564941406,25,406112.74996425,0.046554565429688,-0.466690063476563,-0.804672241210938,406112.67774725,-0.218047645830783,0.303529790500146,-0.117211844844894,406112.67774725,-0.000906928469691,0.035215887513013,0.545966163869982,-0.216196671128273,0.259142309427261,-0.102683953940868,0.026489397510886,-0.029965525493026,0.003983202390373,XArbitraryCorrectedZVertical,0.269571125507355,0.016832822933793,0.004310343414545,0.962823688983917,0.030090192332864,-0.519244015216827,-0.854096114635468,9.86041069030762,-3.25662422180176,-67.6230316162109,1,406108.423058875,cycling,2,2017-12-07 21:15:21.834 -0700,null,0,0,0,0,null,406111.045573,0,-0.2642212,89.83311,0.0.0.0,26.252.40.116,1,2,0.18,0
2017-12-07 21:15:26.366 -0700,31,DC177AC5-2AD5-4A81-A6C2-D7075E6B0E09,my_iOS_device,1512706525.42036,31.7606230080424,-106.452065175498,1135.125,14.69,13.359375,8,5,-9999,1512706525.85596,10.4292488098144,-4.42044067382813,-67.4370727539062,353.023498535156,344.885467529297,25,406112.84806525,0.00341796875,-0.59228515625,-0.95623779296875,406112.77760325,0.370472871873141,-0.148739411093689,0.147550309666968,406112.77760325,0.003411657092766,0.03762559600567,0.555103489974093,0.372303426265717,-0.19308565557003,0.162051409482956,0.058546721935272,0.045479137450457,0.193452179431915,XArbitraryCorrectedZVertical,0.273922175168991,0.018559040501714,0.00679468549788,0.961548745632172,0.031968414783478,-0.527031242847443,-0.84924441576004,10.4037685394287,-3.61989402770996,-67.523078918457,1,406108.423058875,cycling,2,2017-12-07 21:15:21.834 -0700,null,0,0,0,0,null,406111.045573,0,-0.2642212,89.83311,0.0.0.0,26.252.40.116,1,2,0.18,0
2017-12-07 21:15:26.372 -0700,32,DC177AC5-2AD5-4A81-A6C2-D7075E6B0E09,my_iOS_device,1512706525.42036,31.7606230080424,-106.452065175498,1135.125,14.69,13.359375,8,5,-9999,1512706525.97497,6.31937408447266,-4.83261108398438,-66.839599609375,356.577392578125,348.439361572266,25,406112.94615925,0.15447998046875,-0.412567138671875,-0.781814575195313,406112.87747225,-0.12349717133359,0.135678203843504,-0.252446898683009,406112.87747225,-0.002740801799557,0.069924860816652,0.527256855916788,-0.121686540544033,0.091338351368904,-0.237950950860977,0.133498996496201,0.024618491530418,-0.079159691929817,XArbitraryCorrectedZVertical,0.2604720890522,0.033390711992979,0.007786586880684,0.964872360229492,0.060379173606634,-0.503164649009705,-0.862078726291657,12.2316589355469,-1.95705223083496,-67.2849502563477,1,406108.423058875,cycling,2,2017-12-07 21:15:21.834 -0700,null,0,0,0,0,null,406111.045573,0,-0.2642212,89.83311,0.0.0.0,26.252.40.116,1,2,0.18,0
2017-12-07 21:15:26.459 -0700,33,DC177AC5-2AD5-4A81-A6C2-D7075E6B0E09,my_iOS_device,1512706525.42036,31.7606230080424,-106.452065175498,1135.125,14.69,13.359375,8,5,-9999,1512706525.97497,6.31937408447266,-4.83261108398438,-66.839599609375,356.577392578125,348.439361572266,25,406113.04424325,0.107040405273438,-0.51007080078125,-0.941726684570312,406112.97735925,0.125501466369984,-0.107152286459338,0.310159730033898,406112.97735925,0.006359835866076,0.054790882863371,0.541255941092904,0.127296507358551,-0.151429980993271,0.324617713689804,-0.014815953560174,-0.12043783813715,0.17079384624958,XArbitraryCorrectedZVertical,0.26715099811554,0.027244687080383,0.010385874658823,0.963213503360748,0.046935707330704,-0.515212833881378,-0.855776131153107,11.9253921508789,-2.44920158386231,-67.3238067626953,1,406108.423058875,cycling,2,2017-12-07 21:15:21.834 -0700,null,0,0,0,0,null,406111.045573,0,-0.2642212,89.83311,0.0.0.0,26.252.40.116,1,2,0.18,0
2017-12-07 21:15:26.588 -0700,34,DC177AC5-2AD5-4A81-A6C2-D7075E6B0E09,my_iOS_device,1512706525.42036,31.7606230080424,-106.452065175498,1135.125,14.69,13.359375,8,5,-9999,1512706526.09472,7.32342147827148,-3.75559997558594,-66.089599609375,356.930633544922,348.792602539062,25,406113.14233225,0.020416259765625,-0.4453125,-0.703475952148438,406113.07724025,0.358512082785377,-0.53432279267583,0.084615552050652,406113.07724025,-0.00014813658348,0.066643142071445,0.530460120724592,0.360307097434998,-0.578599631786346,0.099073268473148,0.144477427005768,0.109476424753666,0.020495418459177,XArbitraryCorrectedZVertical,0.261988162994385,0.032131034880877,0.008661571890116,0.964497148990631,0.057442124933004,-0.505930304527283,-0.860659599304199,12.6844253540039,-1.72145080566406,-67.2075119018555,1,406108.423058875,cycling,2,2017-12-07 21:15:21.834 -0700,null,0,0,0,0,null,406111.045573,0,-0.2642212,89.83311,0.0.0.0,26.252.40.116,1,2,0.18,0
2017-12-07 21:15:26.674 -0700,35,DC177AC5-2AD5-4A81-A6C2-D7075E6B0E09,my_iOS_device,1512706525.42036,31.7606230080424,-106.452065175498,1135.125,14.69,13.359375,8,5,-9999,1512706526.22254,10.2552223205566,-3.05078125,-66.3565673828125,353.249176025391,345.111145019531,25,406113.24041725,-0.045883178710938,-0.514129638671875,-0.9521484375,406113.17708525,-0.297890546891903,0.116075740323867,0.17947042586044,406113.17708525,0.017429074904547,0.041769248909502,0.536266525738547,-0.296095579862595,0.071799762547016,0.193927854299545,-0.055518135428429,-0.134913340210915,0.076981589198113,XArbitraryCorrectedZVertical,0.264688551425934,0.022444354370236,0.013933593407273,0.96397203207016,0.035895332694054,-0.510930180549622,-0.858872413635254,11.0348358154297,-2.81901168823242,-67.461051940918,1,406108.423058875,cycling,2,2017-12-07 21:15:21.834 -0700,null,0,0,0,0,null,406111.045573,0,-0.2642212,89.83311,0.0.0.0,26.252.40.116,1,2,0.18,0
2017-12-07 21:15:26.836 -0700,36,DC177AC5-2AD5-4A81-A6C2-D7075E6B0E09,my_iOS_device,1512706525.42036,31.7606230080424,-106.452065175498,1135.125,14.69,13.359375,8,5,-9999,1512706526.33269,11.2190895080566,-1.96044921875,-67.3226928710938,354.923370361328,346.785339355469,25,406113.33849425,-0.134323120117188,-0.543289184570313,-0.7069091796875,406113.27698725,0.430827559025389,-0.483800762584264,0.002042644556091,406113.27698725,0.007410240545974,0.060726206022702,0.526409089854532,0.432622492313385,-0.528075814247131,0.01649977080524,0.102907612919807,0.054861012846232,0.022202800959349,XArbitraryCorrectedZVertical,0.259945750236511,0.030276264995337,0.011474347673357,0.965080261230469,0.05247263610363,-0.502431809902191,-0.863023102283478,12.3190536499023,-1.54599189758301,-67.2797088623047,1,406108.423058875,cycling,2,2017-12-07 21:15:21.834 -0700,null,0,0,0,0,null,406111.045573,0,-0.2642212,89.83311,0.0.0.0,26.252.40.116,1,2,0.18,0
2017-12-07 21:15:26.912 -0700,37,DC177AC5-2AD5-4A81-A6C2-D7075E6B0E09,my_iOS_device,1512706526.27254,31.7607681406958,-106.452003903786,1134.438,14.41,13.359375,6,5,-9999,1512706526.57458,8.35423278808594,-3.21040344238281,-69.2037963867188,355.610656738281,347.472625732422,25,406113.43658525,0.23138427734375,-0.649017333984375,-1.03250122070313,406113.37686025,-0.689143532118714,0.839725850686738,-0.289109039513476,406113.37686025,0.027722018091951,0.044053827117105,0.531796381936024,-0.687348663806915,0.795451760292053,-0.274652242660522,-0.221215665340424,-0.18163825571537,-0.03002143651247,XArbitraryCorrectedZVertical,0.262392461299896,0.024890398606658,0.019157337024808,0.964449942111969,0.037957604974508,-0.507082462310791,-0.861061334609985,11.2858648300171,-2.58962249755859,-67.4287109375,1,406108.423058875,cycling,2,2017-12-07 21:15:21.834 -0700,null,0,0,0,0,null,406111.045573,0,-0.2642212,89.83311,0.0.0.0,26.252.40.116,1,2,0.18,0
2017-12-07 21:15:26.999 -0700,38,DC177AC5-2AD5-4A81-A6C2-D7075E6B0E09,my_iOS_device,1512706526.27254,31.7607681406958,-106.452003903786,1134.438,14.41,13.359375,6,5,-9999,1512706526.93488,10.6836166381836,-0.577545166015625,-68.7969360351562,355.315460205078,347.177429199219,25,406113.53465725,-0.059585571289063,-0.510101318359375,-0.623428344726563,406113.47673225,0.532409311432608,-0.728450724543848,0.22097445986878,406113.47673225,-0.009999186698866,0.090607739284975,0.505930259439062,0.534204185009003,-0.772724151611328,0.235431045293808,0.248686715960503,0.201006233692169,-0.108707278966904,XArbitraryCorrectedZVertical,0.250235110521316,0.042596515268087,0.006498950067908,0.967225790023804,0.07914836704731,-0.484621375799179,-0.871135830879211,13.9586811065674,0.024297714233399,-66.9765853881836,1,406108.423058875,cycling,2,2017-12-07 21:15:21.834 -0700,null,0,0,0,0,null,406111.045573,0,-0.2642212,89.83311,0.0.0.0,26.252.40.116,1,2,0.18,0
2017-12-07 21:15:27.051 -0700,39,DC177AC5-2AD5-4A81-A6C2-D7075E6B0E09,my_iOS_device,1512706526.27254,31.7607681406958,-106.452003903786,1134.438,14.41,13.359375,6,5,-9999,1512706526.93488,10.6836166381836,-0.577545166015625,-68.7969360351562,355.315460205078,347.177429199219,25,406113.63271325,0.082015991210938,-0.483383178710938,-1.02052307128906,406113.57660225,-0.545428440737569,0.765515269015026,-0.137741088423879,406113.57660225,0.033007627832317,0.040278972927469,0.542222759901923,-0.54363363981247,0.721242904663086,-0.123284846544266,-0.235648795962334,-0.276988595724106,0.056659430265427,XArbitraryCorrectedZVertical,0.267391413450241,0.023818578571081,0.02128935046494,0.963058292865753,0.034492179751396,-0.516041219234467,-0.855868995189667,11.2266521453857,-3.27888679504394,-67.4085998535156,1,406108.423058875,cycling,2,2017-12-07 21:15:21.834 -0700,null,0,0,0,0,null,406111.045573,0,-0.2642212,89.83311,0.0.0.0,26.252.40.116,1,2,0.18,0
2017-12-07 21:15:27.189 -0700,40,DC177AC5-2AD5-4A81-A6C2-D7075E6B0E09,my_iOS_device,1512706526.27254,31.7607681406958,-106.452003903786,1134.438,14.41,13.359375,6,5,-9999,1512706526.93488,10.6836166381836,-0.577545166015625,-68.7969360351562,355.315460205078,347.177429199219,25,406113.73081725,0.079315185546875,-0.537948608398438,-0.7662353515625,406113.67648125,0.116872291805909,-0.459450415473233,-0.106971191505213,406113.67648125,-0.004324166165876,0.090703304203866,0.503243116121698,0.118764258921146,-0.503731727600098,-0.092596188187599,0.272381067276001,0.098174870014191,-0.083510585129261,XArbitraryCorrectedZVertical,0.248813137412071,0.043370619416237,0.009195677004755,0.967536270618439,0.079349286854267,-0.482269108295441,-0.87242203950882,14.0340785980225,-0.178787231445313,-66.9605865478516,1,406108.423058875,cycling,2,2017-12-07 21:15:21.834 -0700,null,0,0,0,0,null,406111.045573,0,-0.2642212,89.83311,0.0.0.0,26.252.40.116,1,2,0.18,0
2017-12-07 21:15:27.243 -0700,41,DC177AC5-2AD5-4A81-A6C2-D7075E6B0E09,my_iOS_device,1512706526.27254,31.7607681406958,-106.452003903786,1134.438,14.41,13.359375,6,5,-9999,1512706527.06421,11.4600715637207,-1.4818115234375,-68.2120971679688,353.989532470703,345.851501464844,25,406113.82890325,-0.106582641601563,-0.606948852539063,-1.04318237304688,406113.77635325,0.041596445698166,0.083323918921963,0.105100587155541,406113.77635325,0.029283657757919,0.041913140775834,0.53255674546881,0.043488379567862,0.039043534547091,0.119475290179253,-0.168391793966293,-0.02418371848762,0.144095584750176,XArbitraryCorrectedZVertical,0.262760818004608,0.02406625635922,0.019635774195194,0.964360952377319,0.036098092794418,-0.507737636566162,-0.860755145549774,11.4612150192261,-2.34047508239746,-67.4082336425781,1,406108.423058875,cycling,2,2017-12-07 21:15:21.834 -0700,null,0,0,0,0,null,406111.172571,0,-0.2642212,89.83311,0.0.0.0,26.252.40.116,1,2,0.18,0
2017-12-07 21:15:27.361 -0700,42,DC177AC5-2AD5-4A81-A6C2-D7075E6B0E09,my_iOS_device,1512706526.27254,31.7607681406958,-106.452003903786,1134.438,14.41,13.359375,6,5,-9999,1512706527.06421,11.4600715637207,-1.4818115234375,-68.2120971679688,353.989532470703,345.851501464844,25,406113.92699725,0.206039428710937,-0.368423461914062,-0.956527709960938,406113.87622725,-0.184344809603612,0.464522672085398,-0.214743195550212,406113.87622725,0.015257361885861,0.082439474526613,0.50724906354728,-0.182452917098999,0.420243173837662,-0.200368776917458,0.000562838453334,-0.090671986341477,-0.140267491340637,XArbitraryCorrectedZVertical,0.250389456748962,0.041801132261753,0.017717678099871,0.967080056667328,0.071977443993092,-0.485774546861649,-0.871115565299988,13.4636392593384,-0.75335693359375,-67.0736236572266,1,406108.423058875,cycling,2,2017-12-07 21:15:21.834 -0700,null,0,0,0,0,null,406111.172571,0,-0.2642212,89.83311,0.0.0.0,26.252.40.116,1,2,0.18,0
2017-12-07 21:15:27.506 -0700,43,DC177AC5-2AD5-4A81-A6C2-D7075E6B0E09,my_iOS_device,1512706526.27254,31.7607681406958,-106.452003903786,1134.438,14.41,13.359375,6,5,-9999,1512706527.17494,12.0223350524902,-0.072311401367188,-68.39013671875,351.92578125,343.787750244141,25,406114.02506125,0.028350830078125,-0.633758544921875,-0.714874267578125,406113.97610125,0.497563979097793,-0.248139768252024,0.189879390981015,406113.97610125,0.010362555852601,0.084925075614078,0.512379353020874,0.499455839395523,-0.292418330907822,0.204253494739532,0.126890823245048,0.171374246478081,0.01396241877228,XArbitraryCorrectedZVertical,0.252951860427856,0.04237550124526,0.01576411165297,0.966421842575073,0.073930099606514,-0.490252435207367,-0.868439316749573,13.8470506668091,-0.71839714050293,-66.9959030151367,1,406108.423058875,cycling,2,2017-12-07 21:15:21.834 -0700,null,0,0,0,0,null,406111.172571,0,-0.2642212,89.83311,0.0.0.0,26.252.40.116,1,2,0.18,0
2017-12-07 21:15:27.549 -0700,44,DC177AC5-2AD5-4A81-A6C2-D7075E6B0E09,my_iOS_device,1512706527.01919,31.7608518759085,-106.451934669266,1129.629,14.15,13.0078125,3,5,-9999,1512706527.29586,13.173641204834,-0.790328979492188,-66.6868896484375,351.393524169922,343.255493164063,25,406114.12317825,-0.0880126953125,-0.552993774414063,-0.91802978515625,406114.07597325,0.164238209689623,0.485084406229682,0.237205095132268,406114.07597325,0.065831844080391,0.060012805929068,0.552872305708855,0.166130036115646,0.44080662727356,0.2515789270401,-0.191529095172882,-0.2024205327034,0.167663931846619,XArbitraryCorrectedZVertical,0.271708339452743,0.037825260311365,0.039830222725868,0.960810780525208,0.051041427999735,-0.525133788585663,-0.849487662315369,13.4616765975952,-3.79204940795898,-66.9709777832031,1,406108.423058875,cycling,2,2017-12-07 21:15:21.834 -0700,null,0,0,0,0,null,406111.172571,0,-0.2642212,89.83311,0.0.0.0,26.252.40.116,1,2,0.18,0
2017-12-07 21:15:27.639 -0700,45,DC177AC5-2AD5-4A81-A6C2-D7075E6B0E09,my_iOS_device,1512706527.01919,31.7608518759085,-106.451934669266,1129.629,14.15,13.0078125,3,5,-9999,1512706527.42622,13.1334800720215,-0.298370361328125,-67.4367065429688,352.887084960937,344.749053955078,25,406114.22125625,0.093719482421875,-0.297500610351562,-0.819595336914063,406114.17584625,-0.404380771504248,-0.294216716168139,0.011182080785025,406114.17584625,0.063110769722951,0.055993071565436,0.531800436968436,-0.402488976716995,-0.338493525981903,0.025555618107319,0.134473770856857,0.22228068113327,0.133417636156082,XArbitraryCorrectedZVertical,0.261692076921463,0.035283096134663,0.037781681865454,0.963765978813171,0.048234961926937,-0.507085978984833,-0.860544741153717,13.6036043167114,-2.7548713684082,-66.9929885864258,1,406108.423058875,cycling,2,2017-12-07 21:15:21.834 -0700,null,0,0,0,0,null,406111.172571,0,-0.2642212,89.83311,0.0.0.0,26.252.40.116,1,2,0.18,0
2017-12-07 21:15:27.763 -0700,46,DC177AC5-2AD5-4A81-A6C2-D7075E6B0E09,my_iOS_device,1512706527.01919,31.7608518759085,-106.451934669266,1129.629,14.15,13.0078125,3,5,-9999,1512706527.657,13.2004165649414,-0.81695556640625,-67.093505859375,345.822570800781,337.684539794922,25,406114.31936825,-0.125961303710938,-0.425186157226563,-1.244873046875,406114.27572225,0.009097358283711,0.689814382397305,0.006034190397902,406114.27572225,0.112639084019855,-0.018286112378737,0.540988860389472,0.010989105328918,0.64553838968277,0.020407469943166,-0.235897675156593,-0.052490491420031,0.186081826686859,XArbitraryCorrectedZVertical,0.267269045114517,0.006243932060897,0.051801558583975,0.962208330631256,-0.015673980116844,-0.514983892440796,-0.857056558132172,9.61201572418213,-3.53190612792969,-67.6449737548828,1,406108.423058875,cycling,2,2017-12-07 21:15:21.834 -0700,null,0,0,0,0,null,406111.172571,0,-0.2642212,89.83311,0.0.0.0,26.252.40.116,1,2,0.18,0
2017-12-07 21:15:27.841 -0700,47,DC177AC5-2AD5-4A81-A6C2-D7075E6B0E09,my_iOS_device,1512706527.01919,31.7608518759085,-106.451934669266,1129.629,14.15,13.0078125,3,5,-9999,1512706527.77782,13.4012184143066,4.19606018066406,-67.0553588867188,351.718322753906,343.580291748047,25,406114.41745325,0.203048706054687,-0.209213256835937,-0.958892822265625,406114.37557125,0.380184355104224,0.202870823410639,-0.55584912376694,406114.37557125,0.03696343978902,0.108235525714717,0.486428627287922,0.382076054811478,0.158595696091652,-0.541476130485535,0.09557618945837,0.211307212710381,-0.283686339855194,XArbitraryCorrectedZVertical,0.239459723234177,0.056934483349323,0.030934751033783,0.968741714954376,0.095494367182255,-0.467471748590469,-0.878835022449493,15.9074506759644,0.880580902099609,-66.5348434448242,1,406108.423058875,cycling,2,2017-12-07 21:15:21.834 -0700,null,0,0,0,0,null,406111.172571,0,-0.2642212,89.83311,0.0.0.0,26.252.40.116,1,2,0.18,0
2017-12-07 21:15:27.986 -0700,48,DC177AC5-2AD5-4A81-A6C2-D7075E6B0E09,my_iOS_device,1512706527.01919,31.7608518759085,-106.451934669266,1129.629,14.15,13.0078125,3,5,-9999,1512706527.87865,15.8376960754395,6.19064331054688,-67.6654663085938,351.915374755859,343.77734375,25,406114.51552125,-0.07220458984375,-0.325714111328125,-0.999435424804688,406114.47546925,0.02860527958465,0.04527293958302,0.091036167122724,406114.47546925,0.046117730739808,0.088376983354583,0.486326259825013,0.030496945604682,0.000998788513243,0.10540883988142,-0.200587123632431,0.157093778252602,-0.167215391993523,XArbitraryCorrectedZVertical,0.239486366510391,0.048409227281809,0.0329898186028,0.96913081407547,0.078028522431851,-0.4673812687397,-0.880605638027191,15.1193237304688,0.617008209228516,-66.7213134765625,1,406108.423058875,cycling,2,2017-12-07 21:15:21.834 -0700,null,0,0,0,0,null,406111.172571,0,-0.2642212,89.83311,0.0.0.0,26.252.40.116,1,2,0.18,0
2017-12-07 21:15:28.067 -0700,49,DC177AC5-2AD5-4A81-A6C2-D7075E6B0E09,my_iOS_device,1512706527.01919,31.7608518759085,-106.451934669266,1129.629,14.15,13.0078125,3,5,-9999,1512706527.99732,15.9046287536621,4.9805908203125,-65.64453125,350.437133789063,342.299102783203,25,406114.61362125,-0.068832397460938,-0.288421630859375,-0.931564331054688,406114.57534425,0.07721489369743,-0.106435896126107,-0.013555756264612,406114.57534425,0.04279684636312,0.088980963356819,0.490188217323711,0.079200640320778,-0.150712549686432,0.000733954599127,-0.103774763643742,0.221188679337501,-0.090118139982224,XArbitraryCorrectedZVertical,0.241428822278976,0.04832348972559,0.031526274979115,0.968701720237732,0.078399389982224,-0.470791935920715,-0.878753900527954,15.105302810669,0.390224456787109,-66.7261962890625,1,406108.423058875,cycling,2,2017-12-07 21:15:21.834 -0700,null,0,0,0,0,null,406111.172571,0,-0.2642212,89.83311,0.0.0.0,26.252.40.116,1,2,0.18,0
2017-12-07 21:15:28.134 -0700,50,DC177AC5-2AD5-4A81-A6C2-D7075E6B0E09,my_iOS_device,1512706527.01919,31.7608518759085,-106.451934669266,1129.629,14.15,13.0078125,3,5,-9999,1512706527.99732,15.9046287536621,4.9805908203125,-65.64453125,350.437133789063,342.299102783203,25,406114.71170725,-0.155715942382813,-0.372802734375,-1.02197265625,406114.67521625,0.082841886764659,-0.323783130590199,0.040377783183345,406114.67521625,0.04565365939019,0.067443972422722,0.494723116381477,0.084827594459057,-0.368058949708939,0.054667223244906,-0.213868737220764,0.10259559750557,-0.064359791576862,XArbitraryCorrectedZVertical,0.243897601962089,0.038266249001026,0.030370520427823,0.968569695949554,0.059312462806702,-0.474787980318069,-0.878099322319031,14.0549259185791,0.133144378662109,-66.9563217163086,1,406108.423058875,cycling,2,2017-12-07 21:15:21.834 -0700,null,0,0,0,0,null,406111.172571,0,-0.2642212,89.83311,0.0.0.0,26.252.40.116,1,2,0.18,0
2017-12-07 21:15:28.261 -0700,51,DC177AC5-2AD5-4A81-A6C2-D7075E6B0E09,my_iOS_device,1512706527.01919,31.7608518759085,-106.451934669266,1129.629,14.15,13.0078125,3,5,-9999,1512706528.10896,16.5739860534668,3.17216491699219,-64.5006713867187,347.420989990234,339.282958984375,25,406114.80978725,-0.172698974609375,-0.41546630859375,-0.806900024414063,406114.77509225,0.219561919226602,-0.529281162416201,0.133742618363234,406114.77509225,0.058038917558661,0.007941442035524,0.511089575139588,0.221547588706016,-0.573556065559387,0.148031771183014,-0.197005286812782,0.098319798707962,0.028083613142371,XArbitraryCorrectedZVertical,0.252552658319473,0.011174382641912,0.029076175764203,0.967081606388092,0.006926548667252,-0.48912787437439,-0.872184574604034,10.9206390380859,-0.812368392944336,-67.5336074829102,1,406108.423058875,cycling,2,2017-12-07 21:15:21.834 -0700,null,0,0,0,0,null,406112.186457,0,-0.298584,89.83347,0.0.0.0,26.252.40.116,1,2,0.18,0
2017-12-07 21:15:28.355 -0700,52,DC177AC5-2AD5-4A81-A6C2-D7075E6B0E09,my_iOS_device,1512706528.01918,31.760981418222,-106.451912457223,1129.782,13.65,13.0078125,3,5,-9999,1512706528.22995,12.4908790588379,1.43026733398438,-63.3184204101562,345.10400390625,336.965972900391,25,406114.90784025,-0.238693237304687,-0.4654541015625,-0.963882446289062,406114.87496625,-0.114401943578752,0.190526805442013,-0.096435726232859,406114.87496625,0.062773081606099,-0.00847156997589,0.514631565895656,-0.112416312098503,0.146252676844597,-0.0821468308568,-0.225123971700668,-0.008594521321356,0.043920051306486,XArbitraryCorrectedZVertical,0.254486560821533,0.003891742322594,0.029270520433784,0.966625392436981,-0.007374194450676,-0.492214173078537,-0.870442867279053,9.08323574066162,-1.49870681762695,-67.7934875488281,1,406108.423058875,cycling,2,2017-12-07 21:15:21.834 -0700,null,0,0,0,0,null,406112.186457,0,-0.298584,89.83347,0.0.0.0,26.252.40.116,1,2,0.18,0
2017-12-07 21:15:28.494 -0700,53,DC177AC5-2AD5-4A81-A6C2-D7075E6B0E09,my_iOS_device,1512706528.01918,31.760981418222,-106.451912457223,1129.782,13.65,13.0078125,3,5,-9999,1512706528.22995,12.4908790588379,1.43026733398438,-63.3184204101562,345.10400390625,336.965972900391,25,406115.00594425,-0.169921875,-0.440963745117188,-0.831314086914063,406114.97483225,0.157507602666665,-0.143906572663522,-0.106957076751435,406114.97483225,0.067176018382167,-0.046176438018579,0.500951892264153,0.159430280327797,-0.188409700989723,-0.092537954449654,-0.05472669005394,0.040410809218884,0.00184697820805,XArbitraryCorrectedZVertical,0.248410329222679,-0.014031628146768,0.026806063950062,0.968182265758514,-0.04048815369606,-0.480260699987412,-0.876190841197968,6.90291786193848,-0.414009094238281,-68.0653076171875,1,406108.423058875,cycling,2,2017-12-07 21:15:21.834 -0700,null,0,0,0,0,null,406112.186457,0,-0.298584,89.83347,0.0.0.0,26.252.40.116,1,2,0.18,0
2017-12-07 21:15:28.623 -0700,54,DC177AC5-2AD5-4A81-A6C2-D7075E6B0E09,my_iOS_device,1512706528.01918,31.760981418222,-106.451912457223,1129.782,13.65,13.0078125,3,5,-9999,1512706528.47294,11.7545890808106,1.41696166992188,-63.483642578125,345.963439941406,337.825408935547,25,406115.10401725,-0.095535278320313,-0.458038330078125,-0.93536376953125,406115.07471325,-0.131722078044191,0.197165799723471,-0.231013778230052,406115.07471325,0.068017834188263,-0.062626340441342,0.491285153802052,-0.129825070500374,0.152510121464729,-0.216511771082878,-0.1188889965415,-0.01606403850019,-0.061376966536045,XArbitraryCorrectedZVertical,0.243952497839928,-0.022086035460234,0.025356406345964,0.969204008579254,-0.05518326535821,-0.47175943851471,-0.879998743534088,10.6452960968018,1.98323822021484,-63.1477966308594,1,406108.423058875,cycling,2,2017-12-07 21:15:21.834 -0700,null,0,0,0,0,null,406112.186457,0,-0.298584,89.83347,0.0.0.0,26.252.40.116,1,2,0.18,0
2017-12-07 21:15:28.631 -0700,55,DC177AC5-2AD5-4A81-A6C2-D7075E6B0E09,my_iOS_device,1512706528.01918,31.760981418222,-106.451912457223,1129.782,13.65,13.0078125,3,5,-9999,1512706528.47294,11.7545890808106,1.41696166992188,-63.483642578125,345.963439941406,337.825408935547,25,406115.20210025,-0.1361083984375,-0.44866943359375,-0.92913818359375,406115.17457125,-0.068642178148465,0.019630693027192,-0.099714343850856,406115.17457125,0.062697399285406,-0.072529914570117,0.482097867491066,-0.066792160272598,-0.025072757154703,-0.085179500281811,-0.101076275110245,0.006775532849133,-0.006914993748069,XArbitraryCorrectedZVertical,0.23955075442791,-0.027713991701603,0.021766280755401,0.970244109630585,-0.064206935465336,-0.463638961315155,-0.883694767951965,9.93135452270508,2.61483955383301,-63.2410507202148,1,406108.423058875,cycling,2,2017-12-07 21:15:21.834 -0700,null,0,0,0,0,null,406112.186457,0,-0.298584,89.83347,0.0.0.0,26.252.40.116,1,2,0.18,0
2017-12-07 21:15:28.760 -0700,56,DC177AC5-2AD5-4A81-A6C2-D7075E6B0E09,my_iOS_device,1512706528.01918,31.760981418222,-106.451912457223,1129.782,13.65,13.0078125,3,5,-9999,1512706528.59317,12.4908828735352,2.01533508300781,-64.5132446289063,346.012969970703,337.874938964844,25,406115.30017425,-0.166961669921875,-0.430694580078125,-0.862838745117188,406115.27446125,0.009737049577548,-0.019075423939911,-0.046929692097158,406115.27446125,0.062939269216315,-0.091563963444943,0.482210714756728,0.011569646187127,-0.063840560615063,-0.032362338155508,-0.051344949752092,0.031045451760292,0.052441790699959,XArbitraryCorrectedZVertical,0.239806205034256,-0.036915101110935,0.019599888473749,0.969920694828033,-0.081009790301323,-0.463738948106766,-0.882260501384735,8.78494071960449,2.69836044311523,-63.4069671630859,1,406108.423058875,cycling,2,2017-12-07 21:15:21.834 -0700,null,0,0,0,0,null,406112.186457,0,-0.298584,89.83347,0.0.0.0,26.252.40.116,1,2,0.18,0
2017-12-07 21:15:28.865 -0700,57,DC177AC5-2AD5-4A81-A6C2-D7075E6B0E09,my_iOS_device,1512706528.01918,31.760981418222,-106.451912457223,1129.782,13.65,13.0078125,3,5,-9999,1512706528.59317,12.4908828735352,2.01533508300781,-64.5132446289063,346.012969970703,337.874938964844,25,406115.39825825,-0.131973266601563,-0.444351196289063,-0.849380493164063,406115.37433625,0.024932247809213,-0.012763998472532,-0.084151363072651,406115.37433625,0.057716228242466,-0.098171847219992,0.474960556131483,0.02675143815577,-0.057576533406973,-0.069558195769787,-0.073815107345581,0.012250270694494,-0.034420114010573,XArbitraryCorrectedZVertical,0.236249208450317,-0.040889378637076,0.016472270712257,0.970692038536072,-0.087165109813213,-0.457303375005722,-0.885028719902039,8.14782333374023,3.19017601013184,-63.4691696166992,1,406108.423058875,cycling,2,2017-12-07 21:15:21.834 -0700,null,0,0,0,0,null,406112.186457,0,-0.298584,89.83347,0.0.0.0,26.252.40.116,1,2,0.18,0
2017-12-07 21:15:28.935 -0700,58,DC177AC5-2AD5-4A81-A6C2-D7075E6B0E09,my_iOS_device,1512706528.01918,31.760981418222,-106.451912457223,1129.782,13.65,13.0078125,3,5,-9999,1512706528.59317,12.4908828735352,2.01533508300781,-64.5132446289063,346.012969970703,337.874938964844,25,406115.49631025,-0.130203247070313,-0.48651123046875,-0.954116821289062,406115.47419725,-0.170026856635019,0.107254818161306,-0.17389483180225,406115.47419725,0.048477937072409,-0.103561235948927,0.468895027453882,-0.168219596147537,0.062414329499006,-0.159285068511963,-0.024175405502319,-0.012805568985641,-0.024530697613955,XArbitraryCorrectedZVertical,0.233146250247955,-0.044704005122185,0.011521930806339,0.971345245838165,-0.092218637466431,-0.451900839805603,-0.887288749217987,7.46552228927612,3.62123489379883,-63.5299339294434,1,406108.423058875,cycling,2,2017-12-07 21:15:21.834 -0700,null,0,0,0,0,null,406112.186457,0,-0.298584,89.83347,0.0.0.0,26.252.40.116,1,2,0.18,0
2017-12-07 21:15:29.047 -0700,59,DC177AC5-2AD5-4A81-A6C2-D7075E6B0E09,my_iOS_device,1512706528.01918,31.760981418222,-106.451912457223,1129.782,13.65,13.0078125,3,5,-9999,1512706528.71288,11.9286231994629,2.60043334960937,-64.2591552734375,346.150665283203,338.012634277344,25,406115.59439425,-0.068984985351563,-0.513931274414063,-0.776336669921875,406115.57408325,0.234172819915103,-0.102096275129823,-0.028374916150358,406115.57408325,0.032233914463408,-0.074836239457855,0.467460841290198,0.235982269048691,-0.146930769085884,-0.013768523000181,0.049746830016375,-0.011567742563784,-0.022991279140115,XArbitraryCorrectedZVertical,0.232002437114716,-0.03265742585063,0.007003878243268,0.972141623497009,-0.066745117306709,-0.450621008872986,-0.890216708183289,8.84811305999756,4.11131286621094,-63.3222503662109,1,406108.423058875,cycling,2,2017-12-07 21:15:21.834 -0700,null,0,0,0,0,null,406112.186457,0,-0.298584,89.83347,0.0.0.0,26.252.40.116,1,2,0.18,0
2017-12-07 21:15:29.242 -0700,60,DC177AC5-2AD5-4A81-A6C2-D7075E6B0E09,my_iOS_device,1512706528.01918,31.760981418222,-106.451912457223,1129.782,13.65,13.0078125,3,5,-9999,1512706528.83398,11.9955520629883,2.40098571777344,-64.1954956054687,345.948669433594,337.810638427734,25,406115.69246425,-0.168319702148438,-0.553848266601563,-0.818527221679688,406115.67393725,-0.166047561334223,-0.064477260519691,-0.148675228911418,406115.67393725,0.034728864477525,-0.11147624371354,0.492457516176535,-0.164093762636185,-0.109268926084042,-0.134190127253532,-0.071254402399063,-0.081360630691052,0.177873939275742,XArbitraryCorrectedZVertical,0.244271114468574,-0.049795083701611,0.00323671172373,0.96842223405838,-0.098026603460312,-0.47279280424118,-0.875704169273376,6.62394571304321,2.28643417358398,-63.6851272583008,1,406108.423058875,cycling,2,2017-12-07 21:15:21.834 -0700,null,0,0,0,0,null,406112.186457,0,-0.298584,89.83347,0.0.0.0,26.252.40.116,1,2,0.18,0
2017-12-07 21:15:29.400 -0700,61,DC177AC5-2AD5-4A81-A6C2-D7075E6B0E09,my_iOS_device,1512706528.01918,31.760981418222,-106.451912457223,1129.782,13.65,13.0078125,3,5,-9999,1512706528.95737,12.6515350341797,2.83976745605469,-64.0557250976562,344.428649902344,336.290618896484,25,406115.79052725,0.216156005859375,-0.393646240234375,-1.06936645507813,406115.77383325,-0.347752911981457,0.387206844582654,-0.281257507987704,406115.77383325,-0.022312316376691,-0.049967328046542,0.451740232036768,-0.345799267292023,0.342416882514954,-0.266773015260696,0.271041065454483,0.043282356113196,-0.166619658470154,XArbitraryCorrectedZVertical,0.223599031567573,-0.026842661201954,-0.016463441774249,0.974172413349152,-0.044936340302229,-0.436531871557236,-0.898565888404846,8.49813270568848,5.45052337646484,-63.2690544128418,1,406108.423058875,cycling,2,2017-12-07 21:15:21.834 -0700,null,0,0,0,0,null,406112.186457,0,-0.298584,89.83347,0.0.0.0,26.252.40.116,1,2,0.18,0
